% program   : GINav v0.1.0
% obs start : 2018/12/19 03:56:15.0
% obs end   : 2018/12/19 04:16:56.0
% mode      : PPK/INS TC
% system    : GPS GLONASS GALILEO BDS QZSS
% nfreqs    : 1
% elev mask : 15.0 deg
% ephemeris : broadcast
% ionos opt : broadcast model
% trops opt : Saastamoinen model
%
%  GPST              x-ecef(m)      y-ecef(m)      z-ecef(m)   Q  ns   sdx(m)   sdy(m)   sdz(m)  sdxy(m)  sdyz(m)  sdzx(m) age(s)  ratio    vx(m/s)    vy(m/s)    vz(m/s)      sdvx     sdvy     sdvz    sdvxy    sdvyz    sdvzx pitch(deg)  roll(deg)   yaw(deg)       sdp      sdr      sdy     sdpr     sdry     sdyp
2032 273386.000  -3963423.6394   3350882.3296   3694868.8855   3   0  27.8149  26.8883  29.8900 -12.2578   1.1026  -1.1991   0.00    0.0    1.43216    0.01301    1.58108  10.00000 10.00000 10.00000  0.00000 -0.00000  0.00000    0.00000    0.00000  334.01334   0.30000  0.30000  0.50000  0.00000  0.00000  0.00000
2032 273387.000  -3963421.8119   3350882.3023   3694870.9479   1  20   0.0083   0.0098   0.0077  -0.0074   0.0058  -0.0067   0.00    7.5    1.79859   -0.25835    2.22143   9.38979  9.35126  9.48483 -1.46410  0.13261 -0.14332    0.20602    0.34473  335.16005   0.30004  0.30004  0.50003  0.00000 -0.00025 -0.00308
2032 273388.000  -3963419.6357   3350882.3158   3694873.3300   1  20   0.0083   0.0098   0.0077  -0.0074   0.0058  -0.0067   0.00    6.7    2.42986   -0.11055    2.53034   0.35715  0.44640  0.33171 -0.30205  0.24435 -0.29011    0.16807    0.37231  334.34020   0.30011  0.30011  0.50007 -0.00005  0.00104 -0.00435
2032 273389.000  -3963417.2438   3350882.4474   3694875.9532   1  20   0.0083   0.0098   0.0077  -0.0074   0.0058  -0.0067   0.00    8.5    2.58173   -0.11565    2.72785   0.20609  0.25651  0.19172 -0.17160  0.13785 -0.16358    0.36658    0.50616  333.07300   0.29428  0.29583  0.50007 -0.03887  0.01966  0.01448
2032 273390.000  -3963414.7862   3350882.5965   3694878.5482   1  19   0.0087   0.0106   0.0078  -0.0081   0.0062  -0.0070   0.00    8.7    2.52937   -0.16151    2.67264   0.14798  0.18355  0.13890 -0.11671  0.09177 -0.11064    0.24657    0.69369  331.86330   0.27444  0.28084  0.50004 -0.07649  0.03588  0.03134
2032 273391.000  -3963412.3194   3350882.7911   3694881.0741   1  19   0.0087   0.0106   0.0078  -0.0081   0.0062  -0.0070   0.00   11.0    2.55139   -0.16163    2.67685   0.11813  0.14830  0.11233 -0.08561  0.06274 -0.08160    0.68849    0.70855  330.74975   0.24090  0.25369  0.50001 -0.10262  0.04841  0.04605
2032 273392.000  -3963409.6928   3350883.0840   3694883.7526   1  19   0.0087   0.0106   0.0078  -0.0081   0.0062  -0.0070   0.00   11.2    2.79930   -0.08258    2.87664   0.09913  0.12786  0.09561 -0.06525  0.04005 -0.06456    0.75464    0.57386  329.56659   0.20299  0.21973  0.49999 -0.10927  0.06016  0.05326
2032 273393.000  -3963406.7761   3350883.4751   3694886.6388   1  20   0.0087   0.0106   0.0078  -0.0081   0.0062  -0.0070   0.00   12.7    3.04994    0.05431    3.05059   0.08525  0.11342  0.08355 -0.05144  0.02070 -0.05406    0.93296    0.18912  328.40884   0.16860  0.18580  0.49997 -0.10180  0.07053  0.05189
2032 273394.000  -3963403.6735   3350883.9582   3694889.6568   1  20   0.0085   0.0102   0.0077  -0.0078   0.0060  -0.0069   0.00   14.8    3.15763    0.17714    3.05526   0.07444  0.10138  0.07414 -0.04193 -0.00859 -0.04705    0.84636   -0.31425  327.45166   0.14053  0.15610  0.50005 -0.08854  0.07579  0.04744
2032 273395.000  -3963400.5215   3350884.4447   3694892.7050   1  19   0.0087   0.0106   0.0078  -0.0081   0.0062  -0.0070   0.00   15.6    3.15571    0.21239    3.04873   0.06603  0.09128  0.06650 -0.03571 -0.01542 -0.04200    0.91774   -0.49650  327.40019   0.11910  0.13224  0.50019 -0.07484  0.07590  0.04504
2032 273396.000  -3963397.4286   3350884.9160   3694895.7091   1  19   0.0087   0.0106   0.0078  -0.0081   0.0062  -0.0070   0.00   16.9    3.00112    0.20318    2.89699   0.05946  0.08294  0.06032 -0.03190 -0.01564 -0.03830    0.83403   -0.61734  327.51646   0.10336  0.11398  0.50028 -0.06282  0.07213  0.04657
2032 273397.000  -3963394.5300   3350885.3573   3694898.5310   1  20   0.0087   0.0106   0.0078  -0.0081   0.0062  -0.0070   0.00   17.6    2.78366    0.17455    2.66662   0.05434  0.07608  0.05527 -0.02972 -0.01360 -0.03559    1.02346   -0.68050  327.63599   0.09201  0.10032  0.50009 -0.05287  0.06429  0.05119
2032 273398.000  -3963391.8564   3350885.7707   3694901.1525   1  19   0.0091   0.0105   0.0081  -0.0080   0.0063  -0.0075   0.00   13.2    2.52024    0.15911    2.43393   0.05039  0.07033  0.05102 -0.02863 -0.00922 -0.03359    1.06692   -0.66791  327.61000   0.08379  0.09016  0.49946 -0.04464  0.05331  0.05652
2032 273399.000  -3963389.3824   3350886.1413   3694903.5478   1  21   0.0091   0.0104   0.0080  -0.0080   0.0064  -0.0075   0.00   13.9    2.36920    0.13615    2.26151   0.04735  0.06552  0.04749 -0.02820  0.00447 -0.03217    1.18736   -0.53400  327.62232   0.07799  0.08285  0.49851 -0.03817  0.03975  0.06109
2032 273400.000  -3963386.8364   3350886.5412   3694906.0224   1  20   0.0091   0.0104   0.0078  -0.0081   0.0065  -0.0073   0.00   13.5    2.50922    0.18416    2.41683   0.04497  0.06133  0.04442 -0.02840  0.01127 -0.03098    1.21089   -0.63865  327.63340   0.07382  0.07752  0.49817 -0.03285  0.02895  0.06266
2032 273401.000  -3963384.2956   3350886.9428   3694908.4785   1  20   0.0089   0.0106   0.0080  -0.0080   0.0061  -0.0073   0.00   12.9    2.35809    0.15229    2.25909   0.04300  0.05801  0.04197 -0.02847  0.01463 -0.03012    1.12031   -0.71594  327.70985   0.07089  0.07372  0.49802 -0.02859  0.01801  0.06313
2032 273402.000  -3963381.9343   3350887.2775   3694910.8032   1  20   0.0089   0.0105   0.0078  -0.0081   0.0063  -0.0072   0.00   12.4    2.23781    0.09618    2.22315   0.04137  0.05518  0.03989 -0.02864  0.01686 -0.02937    1.31215   -0.65349  328.60470   0.06887  0.07099  0.49773 -0.02521 -0.01476  0.06414
2032 273403.000  -3963379.5342   3350887.5583   3694913.2084   1  21   0.0088   0.0104   0.0077  -0.0081   0.0064  -0.0071   0.00   10.2    2.30341    0.03825    2.34118   0.03998  0.05270  0.03809 -0.02877  0.01841 -0.02867    1.10422   -0.58915  329.69856   0.06746  0.06905  0.49783 -0.02244 -0.02254  0.06466
2032 273404.000  -3963376.9027   3350887.8653   3694915.8097   1  22   0.0087   0.0101   0.0076  -0.0078   0.0063  -0.0070   0.00    9.7    2.66770    0.12008    2.64279   0.03879  0.05054  0.03658 -0.02864  0.01919 -0.02803    1.36235    0.03473  328.80540   0.06644  0.06767  0.49807 -0.02008 -0.02211  0.06368
2032 273405.000  -3963373.7326   3350888.4423   3694918.7542   1  22   0.0084   0.0099   0.0073  -0.0077   0.0062  -0.0066   0.00    8.6    3.20096    0.35882    2.95885   0.03765  0.04873  0.03542 -0.02834  0.01925 -0.02734    0.82264   -0.66772  326.10215   0.06562  0.06667  0.49705 -0.01797 -0.01148  0.05932
2032 273406.000  -3963370.0694   3350889.1959   3694922.0025   1  22   0.0083   0.0098   0.0071  -0.0077   0.0063  -0.0065   0.00    8.4    3.67738    0.55595    3.25082   0.03653  0.04713  0.03435 -0.02790  0.01913 -0.02657    0.38055   -0.87397  324.32222   0.06499  0.06596  0.49359 -0.01625  0.01884  0.05131
2032 273407.000  -3963365.9755   3350889.9673   3694925.6402   1  21   0.0086   0.0103   0.0072  -0.0081   0.0066  -0.0067   0.00    8.8    4.04023    0.49512    3.64166   0.03545  0.04568  0.03305 -0.02719  0.01927 -0.02584   -0.15727   -0.98536  325.52249   0.06456  0.06547  0.48878 -0.01499  0.03097  0.04113
2032 273408.000  -3963361.7068   3350890.6100   3694929.5146   1  21   0.0087   0.0103   0.0075  -0.0082   0.0066  -0.0070   0.00   16.9    4.02832    0.32839    3.75529   0.03433  0.04385  0.03173 -0.02657  0.01983 -0.02489   -0.66571   -0.91570  326.98886   0.06430  0.06515  0.48562 -0.01418  0.03981  0.03246
2032 273409.000  -3963357.4886   3350891.1382   3694933.3759   1  20   0.0087   0.0103   0.0075  -0.0081   0.0066  -0.0070   0.00   16.8    3.98750    0.21544    3.70081   0.03320  0.04218  0.03069 -0.02595  0.01984 -0.02393   -0.81774   -0.75513  327.38275   0.06413  0.06495  0.48466 -0.01367  0.04533  0.02811
2032 273410.000  -3963353.2781   3350891.6898   3694937.1995   1  19   0.0091   0.0103   0.0079  -0.0080   0.0065  -0.0074   0.00   17.1    3.96095    0.24016    3.69124   0.03217  0.04081  0.02980 -0.02520  0.01940 -0.02305   -1.05566   -0.84060  326.90262   0.06398  0.06480  0.48470 -0.01343  0.04813  0.02617
2032 273411.000  -3963349.0596   3350892.2400   3694940.9824   1  21   0.0091   0.0106   0.0083  -0.0079   0.0060  -0.0075   0.00   13.0    3.95824    0.24314    3.67427   0.03122  0.03961  0.02898 -0.02436  0.01877 -0.02224   -1.04268   -0.75526  326.64935   0.06384  0.06467  0.48503 -0.01339  0.04916  0.02579
2032 273412.000  -3963344.8681   3350892.7915   3694944.8076   1  23   0.0088   0.0105   0.0078  -0.0080   0.0063  -0.0071   0.00   13.0    4.03118    0.18473    3.80165   0.03034  0.03849  0.02815 -0.02353  0.01809 -0.02142   -1.11016   -0.78953  327.28509   0.06367  0.06454  0.48528 -0.01342  0.04939  0.02704
2032 273413.000  -3963340.4404   3350893.2910   3694948.8778   1  24   0.0085   0.0104   0.0074  -0.0080   0.0064  -0.0069   0.00   13.2    4.34594    0.22851    4.13791   0.02954  0.03745  0.02728 -0.02265  0.01733 -0.02065   -0.89610   -0.77173  327.38443   0.06347  0.06442  0.48545 -0.01346  0.05116  0.02793
2032 273414.000  -3963335.6359   3350893.9582   3694953.1934   1  23   0.0086   0.0103   0.0074  -0.0079   0.0065  -0.0070   0.00   10.6    4.73356    0.41632    4.31327   0.02871  0.03644  0.02652 -0.02180  0.01643 -0.01993   -1.22920   -0.66975  325.51695   0.06324  0.06431  0.48549 -0.01356  0.05383  0.02455
2032 273415.000  -3963330.4685   3350894.8603   3694957.6077   1  23   0.0086   0.0102   0.0073  -0.0079   0.0066  -0.0070   0.00    8.4    5.07322    0.67434    4.41013   0.02791  0.03543  0.02588 -0.02098  0.01553 -0.01918   -1.32334   -0.63043  323.52547   0.06300  0.06416  0.48472 -0.01380  0.05566  0.01070
2032 273416.000  -3963325.0438   3350895.8264   3694962.1688   1  23   0.0085   0.0101   0.0071  -0.0080   0.0067  -0.0068   0.00    9.2    5.29905    0.67153    4.58858   0.02710  0.03451  0.02505 -0.02013  0.01488 -0.01855   -1.79134   -0.87794  323.77556   0.06278  0.06396  0.48360 -0.01408  0.05709 -0.02121
2032 273417.000  -3963319.5875   3350896.7415   3694966.8292   1  23   0.0084   0.0101   0.0071  -0.0079   0.0067  -0.0068   0.00    9.1    5.32108    0.58401    4.65089   0.02629  0.03357  0.02427 -0.01932  0.01436 -0.01790   -1.86825   -1.16167  324.47383   0.06256  0.06375  0.48368 -0.01423  0.05856 -0.02819
2032 273418.000  -3963314.0254   3350897.5468   3694971.6513   1  23   0.0084   0.0101   0.0070  -0.0079   0.0068  -0.0068   0.00    9.5    5.48497    0.50205    4.91359   0.02557  0.03276  0.02356 -0.01854  0.01370 -0.01726   -1.88668   -1.15555  325.44758   0.06233  0.06357  0.48396 -0.01425  0.06065 -0.03081
2032 273419.000  -3963308.2781   3350898.2954   3694976.7023   1  23   0.0084   0.0101   0.0070  -0.0079   0.0068  -0.0068   0.00   11.6    5.65171    0.46274    5.13476   0.02487  0.03194  0.02289 -0.01780  0.01305 -0.01666   -1.77278   -1.11570  325.97183   0.06210  0.06343  0.48377 -0.01419  0.06353 -0.03192
2032 273420.000  -3963302.4229   3350899.0357   3694981.8878   1  24   0.0084   0.0100   0.0070  -0.0079   0.0068  -0.0068   0.00   12.6    5.74243    0.48419    5.18625   0.02413  0.03108  0.02227 -0.01714  0.01239 -0.01612   -1.92872   -1.11881  325.77838   0.06186  0.06330  0.48364 -0.01401  0.06589 -0.03180
2032 273421.000  -3963296.5061   3350899.7798   3694987.1082   1  24   0.0082   0.0100   0.0069  -0.0079   0.0067  -0.0066   0.00   13.1    5.77076    0.49036    5.24020   0.02344  0.03030  0.02169 -0.01649  0.01174 -0.01560   -1.92784   -1.22293  325.91226   0.06162  0.06314  0.48384 -0.01372  0.06710 -0.03104
2032 273422.000  -3963290.5935   3350900.5358   3694992.3755   1  22   0.0090   0.0101   0.0071  -0.0081   0.0068  -0.0071   0.00   13.4    5.79447    0.49545    5.24115   0.02280  0.02958  0.02113 -0.01583  0.01109 -0.01513   -2.02379   -1.51567  325.94791   0.06138  0.06294  0.48385 -0.01330  0.06722 -0.02902
2032 273423.000  -3963284.6125   3350901.2939   3694997.6511   1  23   0.0092   0.0102   0.0074  -0.0082   0.0069  -0.0074   0.00   13.2    5.91990    0.55445    5.30422   0.02221  0.02883  0.02053 -0.01519  0.01057 -0.01467   -1.91815   -1.38217  325.75678   0.06116  0.06273  0.48377 -0.01284  0.06655 -0.02709
2032 273424.000  -3963278.5265   3350902.1252   3695003.0084   1  20   0.0093   0.0102   0.0076  -0.0080   0.0067  -0.0076   0.00   18.1    6.01344    0.62737    5.35509   0.02166  0.02811  0.01998 -0.01456  0.01006 -0.01422   -1.92999   -1.47209  325.58387   0.06095  0.06251  0.48379 -0.01241  0.06555 -0.02658
2032 273425.000  -3963272.3653   3350902.9622   3695008.4020   1  19   0.0097   0.0102   0.0081  -0.0081   0.0067  -0.0080   0.00   15.4    6.07415    0.64353    5.39025   0.02113  0.02744  0.01949 -0.01398  0.00954 -0.01380   -1.97448   -1.34891  325.70467   0.06077  0.06229  0.48360 -0.01200  0.06410 -0.02649
2032 273426.000  -3963266.1713   3350903.7959   3695013.8318   1  18   0.0098   0.0102   0.0084  -0.0081   0.0068  -0.0082   0.00   11.9    6.09386    0.63807    5.41579   0.02062  0.02683  0.01903 -0.01342  0.00899 -0.01341   -2.05908   -1.36112  326.00405   0.06060  0.06209  0.48320 -0.01157  0.06231 -0.02591
2032 273427.000  -3963260.1578   3350904.6277   3695019.0821   1  18   0.0098   0.0102   0.0084  -0.0081   0.0068  -0.0082   0.00   13.4    5.62579    0.59929    4.96105   0.02029  0.02711  0.01895 -0.01216  0.00719 -0.01339   -2.50402   -1.29015  326.01367   0.06043  0.06183  0.48053 -0.01103  0.05838 -0.02197
2032 273428.000  -3963254.8233   3350905.4137   3695023.7181   1  15   0.0104   0.0122   0.0096  -0.0070   0.0045  -0.0091   0.00   12.5    4.78805    0.58277    4.19415   0.02032  0.02889  0.01945 -0.00923 -0.00371 -0.01401   -2.60922   -1.53437  325.90850   0.06026  0.06151  0.46656 -0.01040  0.04799  0.00443
2032 273429.000  -3963250.5221   3350906.0614   3695027.4387   1  16   0.0105   0.0133   0.0097  -0.0074   0.0050  -0.0092   0.00   10.7    3.60470    0.41453    3.16954   0.02035  0.03141  0.02056 -0.00448 -0.01052 -0.01492   -2.45661   -1.72842  326.64835   0.06008  0.06122  0.43189 -0.01005  0.02601  0.02888
2032 273430.000  -3963247.4641   3350906.5310   3695030.1348   1  16   0.0098   0.0130   0.0090  -0.0079   0.0058  -0.0085   0.00    8.4    2.50921    0.25428    2.20863   0.02004  0.03166  0.02067 -0.00226 -0.01160 -0.01493   -2.01650   -1.62075  327.69585   0.05994  0.06113  0.38169 -0.01058 -0.02927  0.04029
2032 273431.000  -3963244.9379   3350906.8675   3695032.3873   1  18   0.0095   0.0129   0.0088  -0.0081   0.0060  -0.0082   0.00    8.4    2.44840    0.24630    2.19849   0.01902  0.02771  0.01877 -0.00822 -0.00577 -0.01320   -1.53098   -1.60823  328.44321   0.05984  0.06121  0.34828 -0.01153 -0.04314  0.04574
2032 273432.000  -3963242.3932   3350907.2186   3695034.6712   1  18   0.0093   0.0126   0.0085  -0.0083   0.0065  -0.0080   0.00    8.5    2.47806    0.25837    2.25154   0.01831  0.02528  0.01754 -0.00972  0.00366 -0.01204   -1.05416   -1.49809  328.69184   0.05975  0.06134  0.33440 -0.01228 -0.05052  0.04869
2032 273433.000  -3963239.8421   3350907.5994   3695036.9925   1  19   0.0092   0.0124   0.0084  -0.0084   0.0067  -0.0078   0.00    8.5    2.42510    0.27229    2.19968   0.01782  0.02396  0.01682 -0.01001  0.00535 -0.01134   -1.00633   -1.12573  328.44364   0.05964  0.06144  0.32935 -0.01278 -0.05543  0.05048
2032 273434.000  -3963237.7301   3350907.9903   3695038.8966   1  20   0.0088   0.0117   0.0080  -0.0084   0.0069  -0.0074   0.00    9.2    1.58066    0.21649    1.39715   0.01763  0.02420  0.01677 -0.00907  0.00374 -0.01136   -1.18221   -1.17817  327.51449   0.05952  0.06157  0.32525 -0.01324 -0.05966  0.05177
2032 273435.000  -3963236.6298   3350908.2120   3695039.8441   1  20   0.0088   0.0114   0.0079  -0.0084   0.0070  -0.0074   0.00    9.2    0.61138    0.07642    0.52222   0.01743  0.02446  0.01682 -0.00821 -0.00160 -0.01143   -0.50200   -1.36552  326.76746   0.05941  0.06182  0.31693 -0.01400 -0.06388  0.05294
2032 273436.000  -3963236.1101   3350908.3265   3695040.3091   1  19   0.0095   0.0114   0.0081  -0.0090   0.0076  -0.0079   0.00    9.3    0.49886    0.04619    0.43093   0.01686  0.02274  0.01603 -0.00903  0.00440 -0.01062    0.29791   -0.97073  326.40563   0.05936  0.06211  0.31012 -0.01483 -0.06741  0.05425
2032 273437.000  -3963235.5080   3350908.4698   3695040.8430   1  19   0.0095   0.0114   0.0081  -0.0090   0.0076  -0.0079   0.00    9.4    0.55072    0.05468    0.49962   0.01641  0.02160  0.01548 -0.00923  0.00513 -0.01001    0.54115   -0.80883  326.00103   0.05934  0.06230  0.30908 -0.01543 -0.06999  0.05544
2032 273438.000  -3963235.2287   3350908.5478   3695041.1045   1  19   0.0094   0.0111   0.0081  -0.0089   0.0076  -0.0078   0.00   10.6    0.00167   -0.08807   -0.02503   0.01612  0.02122  0.01526 -0.00894  0.00478 -0.00980    0.67409   -0.73711  325.76556   0.05937  0.06246  0.30914 -0.01595 -0.07203  0.05657
2032 273439.000  -3963235.2356   3350908.5525   3695041.1014   1  21   0.0094   0.0111   0.0080  -0.0089   0.0076  -0.0078   0.00   11.0   -0.03271   -0.09657   -0.02169   0.01582  0.02069  0.01495 -0.00867  0.00446 -0.00946    0.79607   -0.71486  325.77186   0.05942  0.06258  0.30968 -0.01640 -0.07358  0.05760
2032 273440.000  -3963235.2319   3350908.5485   3695041.0993   1  21   0.0091   0.0105   0.0077  -0.0084   0.0073  -0.0075   0.00   11.7   -0.02707   -0.10946   -0.00339   0.01561  0.02053  0.01477 -0.00813  0.00331 -0.00929    0.79970   -0.70964  325.72664   0.05947  0.06256  0.30989 -0.01654 -0.07398  0.05792
2032 273441.000  -3963235.2347   3350908.5520   3695041.1015   1  23   0.0089   0.0103   0.0076  -0.0082   0.0071  -0.0074   0.00   12.1   -0.02249   -0.12003    0.00743   0.01545  0.02055  0.01467 -0.00745  0.00039 -0.00922    0.80625   -0.71288  325.62087   0.05949  0.06240  0.30847 -0.01637 -0.07313  0.05742
2032 273442.000  -3963235.2311   3350908.5491   3695041.0992   1  25   0.0086   0.0101   0.0074  -0.0080   0.0070  -0.0071   0.00   12.1   -0.02246   -0.12640    0.01367   0.01530  0.02059  0.01459 -0.00675 -0.00309 -0.00917    0.81666   -0.72871  325.44812   0.05949  0.06212  0.30502 -0.01595 -0.07113  0.05611
2032 273443.000  -3963235.2369   3350908.5514   3695041.1021   1  25   0.0082   0.0100   0.0071  -0.0078   0.0068  -0.0067   0.00   12.3   -0.02129   -0.12872    0.01429   0.01515  0.02058  0.01449 -0.00614 -0.00408 -0.00910    0.82572   -0.75304  325.23441   0.05947  0.06177  0.29978 -0.01533 -0.06821  0.05413
2032 273444.000  -3963235.2361   3350908.5550   3695041.1019   1  25   0.0079   0.0097   0.0069  -0.0075   0.0066  -0.0064   0.00    4.6   -0.01852   -0.12704    0.01116   0.01500  0.02047  0.01436 -0.00568 -0.00455 -0.00900    0.82949   -0.77165  325.00359   0.05944  0.06140  0.29335 -0.01461 -0.06470  0.05165
2032 273445.000  -3963235.2310   3350908.5460   3695041.0975   1  25   0.0078   0.0097   0.0068  -0.0075   0.0066  -0.0064   0.00    5.0   -0.01756   -0.12406    0.00800   0.01483  0.02027  0.01421 -0.00540 -0.00471 -0.00886    0.83772   -0.79909  324.77884   0.05941  0.06103  0.28637 -0.01385 -0.06089  0.04883
2032 273446.000  -3963235.5743   3350908.7097   3695041.4878   2  24   0.1078   0.1295   0.0927  -0.0997   0.0827  -0.0867   0.00    2.9   -0.05496   -0.10379    0.04280   0.01832  0.02474  0.01686 -0.01020  0.00682 -0.01225    0.85227   -0.82938  324.55547   0.05938  0.06069  0.27951 -0.01312 -0.05698  0.04582
2032 273447.000  -3963235.5801   3350908.7187   3695041.4816   2  26   0.1066   0.1282   0.0916  -0.0986   0.0819  -0.0856   0.00    2.6   -0.05517   -0.09492    0.03670   0.01810  0.02440  0.01664 -0.01011  0.00687 -0.01204    0.86636   -0.85474  324.35263   0.05936  0.06039  0.27298 -0.01245 -0.05320  0.04271
2032 273448.000  -3963235.5900   3350908.7254   3695041.4773   2  25   0.1055   0.1269   0.0906  -0.0976   0.0811  -0.0847   0.00    2.7   -0.05706   -0.08722    0.03111   0.01789  0.02404  0.01643 -0.01008  0.00699 -0.01184    0.88156   -0.87614  324.18776   0.05934  0.06012  0.26712 -0.01186 -0.04961  0.03957
2032 273449.000  -3963235.5952   3350908.7269   3695041.4742   2  25   0.1044   0.1257   0.0896  -0.0966   0.0804  -0.0837   0.00    2.8   -0.05867   -0.07963    0.02327   0.01768  0.02368  0.01621 -0.01006  0.00715 -0.01163    0.88651   -0.89290  324.04263   0.05932  0.05989  0.26206 -0.01136 -0.04627  0.03642
2032 273450.000  -3963235.5881   3350908.7107   3695041.4558   2  25   0.1033   0.1245   0.0886  -0.0956   0.0796  -0.0828   0.00    2.9   -0.05799   -0.07663    0.01561   0.01748  0.02334  0.01600 -0.01005  0.00730 -0.01144    0.89797   -0.90791  323.92228   0.05931  0.05970  0.25782 -0.01097 -0.04321  0.03329
2032 273451.000  -3963235.5878   3350908.7078   3695041.4472   2  26   0.1022   0.1233   0.0876  -0.0946   0.0789  -0.0819   0.00    3.0   -0.06114   -0.07244    0.00878   0.01728  0.02300  0.01579 -0.01005  0.00745 -0.01124    0.90395   -0.91245  323.81104   0.05930  0.05953  0.25440 -0.01067 -0.04041  0.03018
2032 273452.000  -3963235.2386   3350908.5544   3695041.0993   1  25   0.0077   0.0097   0.0066  -0.0074   0.0065  -0.0062   0.00    3.0   -0.02628   -0.08013   -0.03084   0.01364  0.01807  0.01290 -0.00579 -0.00190 -0.00759    0.91002   -0.91520  323.71134   0.05929  0.05939  0.25166 -0.01046 -0.03789  0.02713
2032 273453.000  -3963235.2343   3350908.5533   3695041.0968   1  25   0.0077   0.0097   0.0066  -0.0074   0.0065  -0.0062   0.00    3.1   -0.02788   -0.07584   -0.03465   0.01350  0.01779  0.01274 -0.00588 -0.00093 -0.00744    0.91581   -0.92488  323.62249   0.05928  0.05927  0.24969 -0.01033 -0.03558  0.02407
2032 273454.000  -3963235.2378   3350908.5496   3695041.0995   1  25   0.0077   0.0097   0.0066  -0.0074   0.0065  -0.0062   0.00    3.1   -0.02759   -0.07470   -0.03794   0.01336  0.01753  0.01259 -0.00595  0.00122 -0.00730    0.92884   -0.93551  323.55414   0.05927  0.05917  0.24830 -0.01027 -0.03348  0.02099
2032 273455.000  -3963235.2391   3350908.5566   3695041.1022   1  25   0.0077   0.0097   0.0066  -0.0074   0.0065  -0.0062   0.00    3.2   -0.02589   -0.07248   -0.04254   0.01323  0.01729  0.01244 -0.00599  0.00187 -0.00718    0.93517   -0.95061  323.49774   0.05925  0.05909  0.24744 -0.01027 -0.03158  0.01786
2032 273456.000  -3963235.2354   3350908.5526   3695041.0987   1  26   0.0077   0.0097   0.0066  -0.0074   0.0065  -0.0062   0.00    3.3   -0.02553   -0.07125   -0.04759   0.01311  0.01708  0.01231 -0.00603  0.00228 -0.00707    0.92890   -0.96899  323.45269   0.05924  0.05903  0.24701 -0.01030 -0.02986  0.01459
2032 273457.000  -3963235.2397   3350908.5578   3695041.0980   1  25   0.0077   0.0097   0.0066  -0.0074   0.0065  -0.0062   0.00    3.3   -0.02290   -0.06715   -0.05141   0.01300  0.01688  0.01219 -0.00604  0.00256 -0.00697    0.91494   -0.97766  323.41253   0.05922  0.05898  0.24695 -0.01037 -0.02831  0.01102
2032 273458.000  -3963235.2417   3350908.5606   3695041.1028   1  25   0.0077   0.0097   0.0066  -0.0074   0.0065  -0.0062   0.00    3.3   -0.01935   -0.06479   -0.05129   0.01289  0.01670  0.01208 -0.00604  0.00276 -0.00688    0.91243   -0.97833  323.38571   0.05920  0.05894  0.24719 -0.01045 -0.02693  0.00653
2032 273459.000  -3963235.2166   3350908.5667   3695041.1279   1  26   0.0077   0.0097   0.0066  -0.0074   0.0065  -0.0062   0.00    3.4    0.05507   -0.04494    0.01326   0.01282  0.01658  0.01199 -0.00602  0.00280 -0.00683    0.97191   -0.97502  323.32266   0.05918  0.05891  0.24759 -0.01055 -0.02561 -0.00540
2032 273460.000  -3963234.9210   3350908.6471   3695041.3852   1  25   0.0077   0.0097   0.0066  -0.0074   0.0065  -0.0062   0.00    3.5    0.65693    0.10153    0.52230   0.01292  0.01697  0.01213 -0.00580  0.00065 -0.00710    1.41404   -0.81901  322.92683   0.05915  0.05888  0.24733 -0.01069 -0.02352 -0.01155
2032 273461.000  -3963233.7687   3350908.9713   3695042.3554   1  24   0.0081   0.0098   0.0066  -0.0076   0.0066  -0.0064   0.00    5.8    1.50055    0.41175    1.22688   0.01312  0.01773  0.01255 -0.00556 -0.00387 -0.00754    1.54926   -0.33761  320.27030   0.05911  0.05879  0.24305 -0.01098 -0.01820 -0.01838
2032 273462.000  -3963232.0094   3350909.7097   3695043.6357   1  24   0.0081   0.0098   0.0067  -0.0076   0.0066  -0.0064   0.00    6.1    1.75381    0.72733    1.21839   0.01298  0.01728  0.01235 -0.00631 -0.00288 -0.00708    1.50081   -0.37276  313.18257   0.05908  0.05863  0.23674 -0.01142 -0.01191 -0.02472
2032 273463.000  -3963230.3366   3350910.7042   3695044.6754   1  24   0.0081   0.0098   0.0067  -0.0076   0.0066  -0.0064   0.00    6.1    1.76519    1.00618    0.97265   0.01304  0.01702  0.01202 -0.00668 -0.00127 -0.00629    1.87910   -0.61410  304.74192   0.05897  0.05820  0.23386 -0.01162 -0.01327 -0.02957
2032 273464.000  -3963228.2441   3350912.2962   3695045.5978   1  24   0.0092   0.0103   0.0070  -0.0084   0.0070  -0.0071   0.00    9.3    2.30384    1.80840    0.82758   0.01386  0.01765  0.01246 -0.00690 -0.00360 -0.00482    1.75054   -0.35817  292.16668   0.05845  0.05691  0.23008 -0.01079 -0.02361 -0.03397
2032 273465.000  -3963225.7242   3350914.9810   3695045.9950   1  23   0.0099   0.0125   0.0084  -0.0099   0.0090  -0.0082   0.00    6.8    2.72086    3.20891    0.02087   0.01592  0.01871  0.01346 -0.00572 -0.00560  0.00250    1.33037    0.55140  273.06848   0.05666  0.05385  0.22195 -0.00665 -0.04064 -0.03608
2032 273466.000  -3963223.3225   3350919.0579   3695045.1177   1  23   0.0115   0.0151   0.0098  -0.0122   0.0110  -0.0097   0.00    6.8    2.29893    4.66662   -1.65605   0.01812  0.02055  0.01448  0.00497 -0.00820  0.00335    1.17934   -0.39011  250.93203   0.05217  0.04902  0.21082  0.00632 -0.05727 -0.03158
2032 273467.000  -3963221.3538   3350924.0089   3695042.9784   1  23   0.0110   0.0145   0.0100  -0.0117   0.0082  -0.0077   0.00    6.7    1.90608    5.50007   -2.87871   0.01834  0.02172  0.01563  0.00745 -0.01093 -0.00263    0.94480   -1.86483  239.27342   0.04484  0.04320  0.20486  0.00254 -0.06590 -0.01638
2032 273468.000  -3963219.3092   3350929.8212   3695040.1313   1  21   0.0114   0.0163   0.0100  -0.0124   0.0110  -0.0090   0.00    7.3    2.14340    6.31554   -3.38101   0.01773  0.02138  0.01575  0.00743 -0.01119 -0.00416    0.84113   -2.41427  236.88423   0.03722  0.03780  0.20408 -0.00757 -0.06832  0.01637
2032 273469.000  -3963216.9883   3350936.5186   3695036.8712   1  21   0.0110   0.0158   0.0093  -0.0120   0.0112  -0.0091   0.00    6.5    2.45151    7.14554   -3.70849   0.01694  0.02053  0.01510  0.00697 -0.01042 -0.00505    0.95301   -1.73525  236.06576   0.03108  0.03361  0.20492 -0.00827 -0.06799  0.02044
2032 273470.000  -3963214.4741   3350944.1268   3695033.0326   1  22   0.0110   0.0158   0.0093  -0.0119   0.0112  -0.0091   0.00    6.6    2.69678    8.01598   -4.24761   0.01616  0.01962  0.01432  0.00633 -0.00936 -0.00564    0.78682   -1.18414  234.86996   0.02665  0.03057  0.20536 -0.00725 -0.06653  0.01916
2032 273471.000  -3963211.7315   3350952.6010   3695028.6691   1  22   0.0110   0.0154   0.0091  -0.0119   0.0109  -0.0091   0.00    7.3    2.94982    8.73797   -4.58303   0.01555  0.01882  0.01357  0.00567 -0.00826 -0.00585    0.67945   -1.06603  234.78001   0.02360  0.02836  0.20501 -0.00542 -0.06460  0.01521
2032 273472.000  -3963208.8197   3350961.5798   3695024.0864   1  22   0.0113   0.0154   0.0095  -0.0121   0.0111  -0.0095   0.00    7.5    3.06543    9.03269   -4.66796   0.01523  0.01820  0.01295  0.00528 -0.00694 -0.00540    0.86850   -1.24680  234.93044   0.02160  0.02632  0.20206 -0.00282 -0.06120  0.00858
2032 273473.000  -3963205.8609   3350970.7621   3695019.3156   1  22   0.0105   0.0154   0.0095  -0.0115   0.0111  -0.0090   0.00    8.1    3.21158    9.33309   -4.89277   0.01473  0.01763  0.01244  0.00472 -0.00563 -0.00519    0.53834   -1.38594  235.08746   0.02036  0.02437  0.19571  0.00237 -0.05638 -0.00667
2032 273474.000  -3963202.6762   3350980.4329   3695014.3155   1  22   0.0102   0.0146   0.0091  -0.0110   0.0105  -0.0087   0.00    9.0    3.43497    9.82662   -5.06503   0.01417  0.01711  0.01195  0.00394 -0.00453 -0.00537    0.56704   -1.43682  235.73842   0.01966  0.02298  0.18934  0.00368 -0.05195 -0.01132
2032 273475.000  -3963199.3082   3350990.5090   3695009.1450   1  22   0.0100   0.0142   0.0089  -0.0108   0.0102  -0.0085   0.00    9.7    3.59576   10.16255   -5.23561   0.01373  0.01662  0.01160  0.00297 -0.00324 -0.00533    0.30564   -1.40862  236.14631   0.01931  0.02204  0.18325  0.00410 -0.04795 -0.01320
2032 273476.000  -3963195.7931   3351000.8622   3695003.8146   1  22   0.0099   0.0140   0.0088  -0.0107   0.0100  -0.0084   0.00    9.4    3.69297   10.31632   -5.33615   0.01343  0.01620  0.01138  0.00190 -0.00123 -0.00508   -0.01936   -0.90390  236.45549   0.01920  0.02142  0.17726  0.00404 -0.04417 -0.01333
2032 273477.000  -3963192.2225   3351011.2993   3694998.3652   1  25   0.0094   0.0135   0.0086  -0.0102   0.0097  -0.0081   0.00   10.7    3.72623   10.36967   -5.44084   0.01315  0.01582  0.01123 -0.00124  0.00232 -0.00486   -0.26337   -1.20304  236.65482   0.01924  0.02102  0.17076  0.00357 -0.04035 -0.01161
2032 273478.000  -3963188.6319   3351021.8034   3694992.8871   1  25   0.0088   0.0124   0.0080  -0.0093   0.0088  -0.0075   0.00   11.1    3.62463   10.57901   -5.39813   0.01283  0.01549  0.01109 -0.00256  0.00303 -0.00486    0.15310   -1.09885  236.82095   0.01935  0.02082  0.16448  0.00282 -0.03671 -0.00767
2032 273479.000  -3963185.0681   3351032.5207   3694987.3330   1  27   0.0085   0.0121   0.0079  -0.0090   0.0085  -0.0072   0.00   18.3    3.55300   10.79617   -5.45793   0.01250  0.01520  0.01095 -0.00342  0.00338 -0.00499    0.81127   -0.81944  236.75949   0.01952  0.02082  0.15956  0.00174 -0.03360  0.00592
2032 273480.000  -3963181.5172   3351043.4158   3694981.6746   1  27   0.0081   0.0110   0.0073  -0.0083   0.0076  -0.0067   0.00   19.1    3.63972   10.74601   -5.60881   0.01228  0.01495  0.01084 -0.00390  0.00371 -0.00501    0.06259   -1.30775  236.90236   0.01971  0.02094  0.15590 -0.00110 -0.03096  0.01171
2032 273481.000  -3963177.9814   3351054.0623   3694976.1341   1  27   0.0079   0.0105   0.0070  -0.0080   0.0072  -0.0065   0.00   17.1    3.58511   10.50803   -5.46821   0.01222  0.01480  0.01080 -0.00410  0.00404 -0.00482    0.14566   -1.20775  237.17055   0.01994  0.02111  0.15198 -0.00222 -0.02825  0.01601
2032 273482.000  -3963174.5537   3351064.5207   3694970.7152   1  26   0.0078   0.0098   0.0067  -0.0075   0.0067  -0.0063   0.00    3.6    3.45271   10.23561   -5.34421   0.01212  0.01467  0.01078 -0.00435  0.00419 -0.00472   -0.12431   -1.21366  237.06878   0.02019  0.02132  0.14813 -0.00279 -0.02553  0.01967
2032 273483.000  -3963171.2307   3351074.6374   3694965.3489   1  26   0.0077   0.0097   0.0067  -0.0074   0.0066  -0.0062   0.00    3.9    3.31945    9.94725   -5.26125   0.01197  0.01457  0.01071 -0.00461  0.00421 -0.00477   -0.13219   -1.62922  237.02491   0.02047  0.02154  0.14463 -0.00309 -0.02291  0.02286
2032 273484.000  -3963167.9553   3351084.4771   3694960.1655   1  26   0.0076   0.0092   0.0064  -0.0071   0.0062  -0.0060   0.00    3.2    3.29574    9.66832   -5.09478   0.01183  0.01451  0.01059 -0.00475  0.00419 -0.00493   -0.28589   -1.45062  237.36805   0.02077  0.02177  0.14188 -0.00317 -0.02041  0.02557
2032 273485.000  -3963164.7274   3351094.0841   3694955.1111   1  26   0.0079   0.0092   0.0064  -0.0073   0.0062  -0.0062   0.00    3.3    3.28229    9.54098   -5.03097   0.01164  0.01444  0.01045 -0.00494  0.00405 -0.00522   -0.27721   -1.74162  237.60019   0.02107  0.02198  0.14025 -0.00304 -0.01808  0.02783
2032 273486.000  -3963161.4619   3351103.6753   3694950.0459   1  26   0.0079   0.0092   0.0064  -0.0073   0.0062  -0.0062   0.00    3.6    3.33697    9.65194   -5.11964   0.01143  0.01434  0.01032 -0.00513  0.00381 -0.00553   -0.28090   -1.61738  237.58616   0.02132  0.02218  0.14019 -0.00279 -0.01617  0.02957
2032 273487.000  -3963158.0965   3351113.5128   3694944.8393   1  26   0.0078   0.0092   0.0063  -0.0072   0.0062  -0.0060   0.00    3.9    3.43317    9.96789   -5.31429   0.01132  0.01423  0.01028 -0.00522  0.00358 -0.00567   -0.30046   -1.22149  237.46917   0.02148  0.02234  0.14138 -0.00244 -0.01481  0.03057
2032 273488.000  -3963154.6610   3351123.5877   3694939.4460   1  26   0.0077   0.0092   0.0063  -0.0072   0.0062  -0.0060   0.00    4.1    3.50357   10.05867   -5.40903   0.01129  0.01416  0.01025 -0.00524  0.00351 -0.00567   -0.67372   -1.76370  237.53155   0.02153  0.02248  0.14283 -0.00208 -0.01401  0.03089
2032 273489.000  -3963151.2050   3351133.5262   3694934.1185   1  25   0.0079   0.0092   0.0064  -0.0073   0.0062  -0.0062   0.00    4.4    3.37643    9.58827   -5.17232   0.01126  0.01417  0.01017 -0.00524  0.00364 -0.00563   -1.15874   -1.65461  237.63381   0.02157  0.02258  0.14432 -0.00168 -0.01319  0.03118
2032 273490.000  -3963147.9431   3351142.9037   3694929.0765   1  24   0.0079   0.0093   0.0064  -0.0073   0.0062  -0.0061   0.00    5.0    3.25164    9.22655   -5.02912   0.01122  0.01416  0.01013 -0.00527  0.00369 -0.00558   -0.99392   -1.53861  237.44410   0.02171  0.02266  0.14567 -0.00115 -0.01183  0.03217
2032 273491.000  -3963144.7613   3351152.1130   3694924.0553   1  24   0.0079   0.0093   0.0064  -0.0073   0.0062  -0.0061   0.00    5.3    3.17702    9.07494   -5.02937   0.01116  0.01411  0.01008 -0.00529  0.00367 -0.00559   -1.16217   -1.60047  237.14521   0.02186  0.02272  0.14711 -0.00028 -0.01057  0.03311
2032 273492.000  -3963141.6181   3351161.1666   3694919.0779   1  21   0.0103   0.0128   0.0076  -0.0103   0.0084  -0.0080   0.00   13.5    3.16135    8.93102   -4.93176   0.01116  0.01412  0.01004 -0.00536  0.00367 -0.00561   -1.24270   -1.69185  237.38038   0.02199  0.02276  0.14868  0.00090 -0.00948  0.03391
2032 273493.000  -3963138.3956   3351170.2227   3694914.1558   1  21   0.0102   0.0123   0.0076  -0.0101   0.0082  -0.0079   0.00   14.1    3.30445    9.09882   -4.97679   0.01115  0.01403  0.01002 -0.00536  0.00355 -0.00560   -1.21660   -1.73629  237.87193   0.02205  0.02278  0.15031  0.00133 -0.00845  0.03431
2032 273494.000  -3963135.0016   3351179.5484   3694909.0966   1  22   0.0102   0.0121   0.0076  -0.0100   0.0082  -0.0079   0.00   14.8    3.48718    9.42512   -5.20233   0.01120  0.01392  0.01007 -0.00532  0.00346 -0.00546   -1.41999   -1.78506  237.94716   0.02199  0.02279  0.15153  0.00147 -0.00820  0.03382
2032 273495.000  -3963131.4691   3351189.2730   3694903.7810   1  22   0.0097   0.0117   0.0074  -0.0095   0.0079  -0.0076   0.00   15.8    3.63796    9.82703   -5.44565   0.01128  0.01381  0.01015 -0.00523  0.00344 -0.00526   -1.20489   -2.04976  237.86519   0.02181  0.02280  0.15166  0.00131 -0.00926  0.03229
2032 273496.000  -3963127.7863   3351199.3968   3694898.2880   1  22   0.0094   0.0115   0.0073  -0.0092   0.0077  -0.0074   0.00   16.5    3.77901   10.19474   -5.63019   0.01130  0.01373  0.01018 -0.00515  0.00345 -0.00515   -1.49419   -1.83048  237.97368   0.02157  0.02280  0.15079  0.00100 -0.01087  0.02996
2032 273497.000  -3963124.0029   3351209.7788   3694892.6447   1  22   0.0108   0.0139   0.0089  -0.0111   0.0100  -0.0089   0.00   22.2    3.91820   10.18705   -5.79173   0.01117  0.01368  0.01004 -0.00519  0.00363 -0.00534   -2.25207   -1.98630  238.03861   0.02139  0.02280  0.15009  0.00080 -0.01238  0.02756
2032 273498.000  -3963120.1101   3351220.0880   3694886.8862   1  21   0.0104   0.0136   0.0088  -0.0108   0.0098  -0.0087   0.00   25.6    3.93537   10.27830   -5.80331   0.01107  0.01365  0.00994 -0.00519  0.00363 -0.00541   -1.92641   -2.02449  237.98543   0.02130  0.02282  0.15024  0.00060 -0.01370  0.02559
2032 273499.000  -3963116.3133   3351230.5351   3694881.2225   1  24   0.0098   0.0131   0.0086  -0.0101   0.0094  -0.0083   0.00   10.9    3.88801   10.36760   -5.79625   0.01095  0.01363  0.00986 -0.00515  0.00365 -0.00547   -1.60940   -0.66081  237.70549   0.02125  0.02283  0.15113  0.00011 -0.01469  0.02421
2032 273500.000  -3963112.5360   3351241.0154   3694875.3626   1  23   0.0094   0.0121   0.0079  -0.0094   0.0085  -0.0077   0.00   11.0    3.94603   10.46409   -5.97911   0.01089  0.01355  0.00980 -0.00513  0.00367 -0.00546   -1.90920   -2.34349  237.63114   0.02125  0.02284  0.15237 -0.00064 -0.01569  0.02313
2032 273501.000  -3963108.7182   3351251.6056   3694869.5511   1  22   0.0113   0.0129   0.0085  -0.0109   0.0093  -0.0090   0.00   12.0    3.91882   10.43064   -5.93313   0.01084  0.01353  0.00973 -0.00520  0.00370 -0.00550   -1.63198   -1.72136  237.69146   0.02127  0.02286  0.15385 -0.00088 -0.01650  0.02235
2032 273502.000  -3963104.9448   3351262.1379   3694863.7638   1  18   0.0139   0.0137   0.0089  -0.0117   0.0096  -0.0097   0.00    5.9    3.91771   10.46132   -5.95678   0.01087  0.01351  0.00970 -0.00520  0.00372 -0.00546   -1.64571   -2.03055  237.66287   0.02133  0.02289  0.15561 -0.00095 -0.01700  0.02217
2032 273503.000  -3963101.1559   3351272.7839   3694857.9237   1  18   0.0139   0.0136   0.0093  -0.0117   0.0097  -0.0098   0.00    5.7    3.84554   10.60287   -5.96671   0.01085  0.01347  0.00969 -0.00517  0.00371 -0.00543   -1.63412   -2.20626  237.49728   0.02139  0.02292  0.15739 -0.00119 -0.01754  0.02208
2032 273504.000  -3963097.3904   3351283.4838   3694851.9507   1  17   0.0125   0.0155   0.0102  -0.0125   0.0114  -0.0098   0.00   19.6    3.80987   10.65947   -6.00295   0.01079  0.01346  0.00967 -0.00520  0.00382 -0.00539   -1.18285   -3.06325  237.17551   0.02146  0.02295  0.15919 -0.00135 -0.01825  0.02216
2032 273505.000  -3963093.6362   3351294.2377   3694846.0317   1  20   0.0127   0.0153   0.0109  -0.0125   0.0115  -0.0101   0.00   21.2    3.83447   10.71746   -6.01807   0.01076  0.01341  0.00967 -0.00520  0.00381 -0.00537   -1.19176   -2.14874  237.26277   0.02153  0.02298  0.16105 -0.00159 -0.01866  0.02248
2032 273506.000  -3963089.7225   3351305.1712   3694840.0177   1  15   0.0195   0.0237   0.0134  -0.0196   0.0158  -0.0138   0.00    9.2    4.06132   11.00165   -6.14114   0.01098  0.01353  0.00974 -0.00541  0.00385 -0.00531   -1.29489   -1.56574  237.77208   0.02165  0.02304  0.16292 -0.00152 -0.01895  0.02238
2032 273507.000  -3963085.6565   3351316.4473   3694833.8785   1  19   0.0203   0.0263   0.0146  -0.0215   0.0179  -0.0153   0.00    9.1    4.17354   11.29965   -6.23970   0.01095  0.01356  0.00975 -0.00546  0.00394 -0.00536   -1.24702   -2.58752  238.10027   0.02168  0.02308  0.16455 -0.00153 -0.01932  0.02151
2032 273508.000  -3963081.5532   3351327.9675   3694827.7488   1  18   0.0193   0.0248   0.0140  -0.0204   0.0171  -0.0148   0.00    9.2    4.17701   11.51878   -6.22365   0.01089  0.01347  0.00971 -0.00539  0.00391 -0.00535   -0.73009   -2.11170  238.11242   0.02170  0.02311  0.16614 -0.00140 -0.01972  0.02053
2032 273509.000  -3963077.4911   3351339.5886   3694821.5433   1  18   0.0185   0.0238   0.0135  -0.0196   0.0165  -0.0142   0.00    9.2    4.05501   11.48176   -6.21636   0.01080  0.01341  0.00964 -0.00535  0.00397 -0.00536   -0.77507   -2.40761  237.82998   0.02173  0.02314  0.16794 -0.00131 -0.02001  0.01991
2032 273510.000  -3963073.5428   3351351.0761   3694815.3996   1  19   0.0126   0.0145   0.0100  -0.0121   0.0105  -0.0102   0.00    3.4    3.94342   11.30911   -6.12294   0.01064  0.01321  0.00955 -0.00512  0.00380 -0.00529   -0.68805   -2.55299  237.72926   0.02179  0.02316  0.16987 -0.00156 -0.02004  0.02046
2032 273511.000  -3963069.6151   3351362.3811   3694809.3751   1  21   0.0113   0.0136   0.0095  -0.0110   0.0099  -0.0095   0.00    5.5    3.93186   11.17754   -6.02409   0.01059  0.01319  0.00953 -0.00509  0.00387 -0.00522   -0.65160   -2.17990  237.88436   0.02189  0.02319  0.17150 -0.00173 -0.01953  0.02184
2032 273512.000  -3963065.7027   3351373.6749   3694803.3824   1  21   0.0100   0.0120   0.0088  -0.0096   0.0090  -0.0085   0.00   10.1    3.93450   11.19176   -6.07855   0.01052  0.01312  0.00949 -0.00508  0.00388 -0.00522   -0.85661   -1.68955  237.70581   0.02200  0.02321  0.17305 -0.00180 -0.01880  0.02327
2032 273513.000  -3963061.8241   3351384.9521   3694797.2805   1  19   0.0098   0.0131   0.0105  -0.0096   0.0103  -0.0086   0.00   10.6    3.87930   11.22949   -6.12345   0.01048  0.01311  0.00955 -0.00504  0.00395 -0.00516   -0.79693   -2.23199  237.54392   0.02214  0.02327  0.17476 -0.00176 -0.01832  0.02443
2032 273514.000  -3963057.9389   3351396.2598   3694791.2119   1  19   0.0095   0.0130   0.0103  -0.0094   0.0101  -0.0083   0.00   11.2    3.87796   11.27123   -6.04429   0.01046  0.01309  0.00952 -0.00502  0.00396 -0.00515   -0.50015   -2.24228  237.73696   0.02226  0.02331  0.17656 -0.00177 -0.01786  0.02547
2032 273515.000  -3963054.0506   3351407.5547   3694785.2323   1  20   0.0089   0.0127   0.0101  -0.0089   0.0098  -0.0078   0.00   12.8    3.86917   11.23602   -5.93532   0.01043  0.01308  0.00950 -0.00500  0.00397 -0.00512   -0.42610   -2.03776  237.93877   0.02237  0.02336  0.17837 -0.00172 -0.01716  0.02643
2032 273516.000  -3963050.0903   3351418.8909   3694779.2839   1  20   0.0085   0.0121   0.0095  -0.0085   0.0092  -0.0074   0.00   11.4    3.99019   11.35938   -5.96332   0.01039  0.01303  0.00946 -0.00500  0.00392 -0.00515   -0.42465   -1.59433  238.25601   0.02248  0.02340  0.18027 -0.00158 -0.01631  0.02710
2032 273517.000  -3963046.0779   3351430.3425   3694773.3293   1  21   0.0089   0.0119   0.0094  -0.0084   0.0090  -0.0074   0.00   11.6    4.03003   11.38482   -5.91220   0.01038  0.01300  0.00945 -0.00499  0.00392 -0.00513   -0.52676   -1.99495  238.55887   0.02256  0.02345  0.18224 -0.00129 -0.01553  0.02729
2032 273518.000  -3963042.0245   3351441.6738   3694767.4475   1  18   0.0092   0.0119   0.0095  -0.0086   0.0091  -0.0076   0.00   12.3    3.98180   11.22154   -5.84782   0.01036  0.01298  0.00943 -0.00499  0.00399 -0.00510   -0.64598   -1.61514  238.43348   0.02265  0.02351  0.18419 -0.00092 -0.01450  0.02766
2032 273519.000  -3963038.1985   3351452.8187   3694761.5799   1  15   0.0092   0.0119   0.0099  -0.0086   0.0093  -0.0077   0.00   12.2    3.76890   11.07234   -5.85475   0.01033  0.01297  0.00947 -0.00501  0.00401 -0.00503   -0.42639   -2.35816  237.84322   0.02278  0.02357  0.18603 -0.00054 -0.01353  0.02863
2032 273520.000  -3963034.3776   3351463.8988   3694755.6956   1  15   0.0091   0.0116   0.0098  -0.0085   0.0090  -0.0076   0.00   12.3    3.82019   11.10742   -5.85630   0.01031  0.01293  0.00943 -0.00500  0.00399 -0.00506   -0.42079   -2.16867  237.97689   0.02291  0.02363  0.18793  0.00025 -0.01288  0.02958
2032 273521.000  -3963030.9271   3351475.2647   3694750.2438   2   5   0.0779   0.0899   0.0653  -0.0703   0.0610  -0.0602   0.00    1.4    3.82392   11.02213   -5.70580   0.01390  0.01642  0.01234 -0.00749  0.00699 -0.00724   -0.62277   -2.09748  238.45331   0.02346  0.02399  0.18999  0.00251 -0.01258  0.02993
2032 273521.994  -3963027.0835   3351486.1901   3694744.6640   3   0   0.0876   0.1008   0.0738  -0.0766   0.0671  -0.0661   0.00    0.0    3.87208   10.82631   -5.45121   0.01546  0.01809  0.01384 -0.00702  0.00667 -0.00692   -0.57675   -2.00309  239.27188   0.02411  0.02464  0.19207  0.00244 -0.01254  0.03029
2032 273522.994  -3963023.1865   3351496.9212   3694739.3470   3   0   0.0993   0.1138   0.0843  -0.0829   0.0732  -0.0722   0.00    0.0    3.92618   10.63392   -5.18420   0.01722  0.01997  0.01552 -0.00617  0.00608 -0.00629   -0.55948   -2.31594  240.20432   0.02477  0.02529  0.19417  0.00236 -0.01252  0.03065
2032 273524.000  -3963019.2521   3351507.4541   3694734.2145   2   7   0.1126   0.1287   0.0965  -0.0890   0.0793  -0.0780   0.00    0.0    3.90580   10.44556   -5.11368   0.01901  0.02189  0.01734 -0.00499  0.00518 -0.00522   -0.79154   -1.98242  240.24561   0.02542  0.02592  0.19626  0.00229 -0.01245  0.03102
2032 273525.000  -3963015.2696   3351517.9280   3694728.9579   2   7   0.1142   0.1309   0.0987  -0.0915   0.0822  -0.0801   0.00    0.0    3.89662   10.54512   -5.23584   0.01901  0.02194  0.01751 -0.00544  0.00549 -0.00547   -0.74483   -1.85429  239.86115   0.02555  0.02598  0.19811  0.00260 -0.01016  0.03169
2032 273526.000  -3963011.3123   3351528.5448   3694723.6211   2   7   0.1140   0.1308   0.0988  -0.0918   0.0826  -0.0803   0.00    0.0    3.82537   10.73103   -5.25739   0.01895  0.02187  0.01752 -0.00554  0.00557 -0.00549   -0.14076   -1.25205  239.63017   0.02563  0.02603  0.20013  0.00282 -0.00797  0.03212
2032 273527.000  -3963007.3909   3351539.3221   3694718.2353   2   9   0.1136   0.1304   0.0986  -0.0918   0.0827  -0.0802   0.00    0.0    3.86902   10.80771   -5.35568   0.01889  0.02177  0.01750 -0.00559  0.00567 -0.00548   -0.58733   -1.72322  239.48180   0.02569  0.02607  0.20222  0.00298 -0.00614  0.03236
2032 273528.000  -3963003.4881   3351550.0611   3694712.6818   2   9   0.1132   0.1300   0.0982  -0.0917   0.0828  -0.0801   0.00    0.0    3.72774   10.75618   -5.51484   0.01882  0.02170  0.01745 -0.00557  0.00582 -0.00551   -0.51457   -1.39371  238.57089   0.02574  0.02611  0.20433  0.00308 -0.00509  0.03249
2032 273529.000  -3962999.7565   3351560.7769   3694707.0074   2  16   0.1126   0.1291   0.0975  -0.0916   0.0824  -0.0797   0.00    1.3    3.61219   10.76415   -5.65608   0.01875  0.02159  0.01736 -0.00560  0.00585 -0.00552   -0.57694   -1.94447  237.93272   0.02580  0.02615  0.20644  0.00307 -0.00562  0.03268
2032 273530.000  -3962996.1128   3351571.5253   3694701.3766   2  15   0.1120   0.1279   0.0965  -0.0911   0.0815  -0.0791   0.00    1.4    3.54998   10.71997   -5.52147   0.01865  0.02144  0.01724 -0.00578  0.00574 -0.00551   -0.19129   -3.09190  238.22630   0.02585  0.02618  0.20854  0.00304 -0.00664  0.03289
2032 273531.000  -3962992.4675   3351582.0852   3694695.8070   2  20   0.1113   0.1269   0.0953  -0.0909   0.0809  -0.0785   0.00    1.3    3.56948   10.45619   -5.46316   0.01851  0.02129  0.01704 -0.00605  0.00569 -0.00560   -0.67306   -4.53080  238.24629   0.02590  0.02621  0.21067  0.00300 -0.00779  0.03335
2032 273532.000  -3962988.8381   3351592.4197   3694690.3324   2  22   0.1105   0.1260   0.0942  -0.0906   0.0803  -0.0780   0.00    1.3    3.51737   10.23069   -5.37584   0.01838  0.02117  0.01686 -0.00625  0.00567 -0.00564   -0.96950   -4.55753  238.21304   0.02597  0.02625  0.21281  0.00296 -0.00861  0.03401
2032 273533.000  -3962985.3021   3351602.4281   3694685.0366   2  22   0.1096   0.1258   0.0934  -0.0906   0.0804  -0.0777   0.00    1.2    3.31947    9.65827   -5.06758   0.01826  0.02112  0.01678 -0.00649  0.00580 -0.00551   -1.11044   -3.91051  238.18927   0.02606  0.02629  0.21490  0.00297 -0.00866  0.03490
2032 273534.000  -3962981.4936   3351611.2670   3694679.7266   1  20   0.0130   0.0162   0.0104  -0.0135   0.0119  -0.0106   0.00    3.4    3.07312    8.74875   -4.55387   0.01092  0.01326  0.01039 -0.00507  0.00335 -0.00280   -1.21787   -4.29718  238.61657   0.02502  0.02519  0.21558  0.00240  0.00847  0.03738
2032 273535.000  -3962978.3643   3351619.7045   3694675.3820   1  23   0.0129   0.0159   0.0102  -0.0133   0.0117  -0.0105   0.00    3.9    3.07452    8.27752   -4.17282   0.01109  0.01332  0.01034 -0.00485  0.00372 -0.00243   -0.75831   -3.50982  239.58187   0.02527  0.02526  0.21579  0.00286  0.01195  0.03923
2032 273536.000  -3962975.1809   3351627.8692   3694671.4726   1  22   0.0117   0.0135   0.0088  -0.0115   0.0098  -0.0092   0.00   11.4    3.24934    7.92487   -3.74769   0.01117  0.01339  0.01012 -0.00442  0.00396 -0.00271   -0.97411   -2.65868  241.81724   0.02552  0.02534  0.21602  0.00344  0.01559  0.04081
2032 273537.000  -3962971.9125   3351635.5335   3694668.0392   1  20   0.0114   0.0127   0.0084  -0.0109   0.0089  -0.0086   0.00   11.4    3.18079    7.29604   -3.21749   0.01146  0.01352  0.01021 -0.00403  0.00427 -0.00177   -0.94152   -2.02919  243.66379   0.02576  0.02544  0.21588  0.00412  0.01923  0.04217
2032 273538.000  -3962968.8765   3351642.6241   3694664.8842   1  20   0.0122   0.0135   0.0086  -0.0113   0.0089  -0.0081   0.00    4.5    2.93328    6.81438   -3.02327   0.01135  0.01346  0.01028 -0.00442  0.00411 -0.00164   -0.92023   -1.89860  243.37301   0.02603  0.02554  0.21544  0.00479  0.02228  0.04362
2032 273539.000  -3962966.1463   3351649.1827   3694661.8476   1  20   0.0114   0.0128   0.0084  -0.0107   0.0087  -0.0081   0.00    4.7    2.53928    6.19933   -2.91125   0.01122  0.01338  0.01047 -0.00487  0.00384 -0.00106   -0.92391   -1.94808  241.95619   0.02633  0.02564  0.21506  0.00537  0.02452  0.04519
2032 273540.000  -3962963.8345   3351655.0922   3694658.9456   1  20   0.0103   0.0109   0.0074  -0.0092   0.0072  -0.0072   0.00    4.5    2.07552    5.39527   -2.71648   0.01124  0.01339  0.01083 -0.00520  0.00352  0.00194   -1.27410   -1.90048  240.13971   0.02667  0.02573  0.21442  0.00589  0.02614  0.04688
2032 273541.000  -3962962.0403   3351659.9706   3694656.4225   1  22   0.0102   0.0109   0.0074  -0.0092   0.0072  -0.0073   0.00    4.7    1.51365    4.16942   -2.20158   0.01175  0.01347  0.01160 -0.00543  0.00357  0.00437   -1.41707   -1.83248  238.79626   0.02709  0.02583  0.21221  0.00644  0.02751  0.04864
2032 273542.000  -3962960.7447   3351663.6140   3694654.5041   1  21   0.0101   0.0108   0.0074  -0.0091   0.0073  -0.0073   0.00    4.8    1.07076    3.02627   -1.64298   0.01205  0.01352  0.01195 -0.00546  0.00389  0.00525   -1.29637   -1.56125  238.08921   0.02758  0.02595  0.20770  0.00709  0.02895  0.05024
2032 273543.000  -3962959.8255   3351666.2261   3694653.1007   1  23   0.0098   0.0106   0.0073  -0.0089   0.0073  -0.0074   0.00    4.5    0.68047    1.97590   -1.09645   0.01211  0.01356  0.01196 -0.00542  0.00420  0.00539   -1.30923   -1.63121  237.65786   0.02810  0.02608  0.20261  0.00778  0.03039  0.05161
2032 273544.000  -3962959.3081   3351667.7247   3694652.2880   1  24   0.0096   0.0103   0.0070  -0.0087   0.0070  -0.0072   0.00    4.5    0.28993    0.85240   -0.49612   0.01215  0.01360  0.01191 -0.00536  0.00451  0.00542   -1.41037   -1.70073  237.51807   0.02862  0.02623  0.19722  0.00850  0.03182  0.05275
2032 273545.000  -3962959.1274   3351668.2452   3694652.0040   1  24   0.0093   0.0101   0.0068  -0.0085   0.0068  -0.0069   0.00    4.6    0.05621    0.14741   -0.12353   0.01153  0.01357  0.01120 -0.00540  0.00445  0.00377   -1.13540   -1.71257  237.45060   0.02913  0.02639  0.19263  0.00923  0.03323  0.05377
2032 273546.000  -3962959.0369   3351668.5160   3694651.8640   1  24   0.0092   0.0100   0.0067  -0.0084   0.0068  -0.0068   0.00    4.9    0.05829    0.17460   -0.13429   0.01055  0.01344  0.01010 -0.00543  0.00404 -0.00291   -0.98476   -1.67341  237.40969   0.02959  0.02655  0.19147  0.00984  0.03455  0.05495
2032 273547.000  -3962958.9587   3351668.7424   3694651.7374   1  24   0.0091   0.0099   0.0066  -0.0083   0.0067  -0.0067   0.00    4.9    0.04417    0.12760   -0.10851   0.01023  0.01333  0.00972 -0.00536  0.00383 -0.00397   -0.99317   -1.62958  237.39891   0.02991  0.02667  0.19262  0.01024  0.03558  0.05596
2032 273548.000  -3962958.8960   3351668.9218   3694651.6383   1  24   0.0090   0.0098   0.0065  -0.0082   0.0065  -0.0065   0.00    5.0    0.01612    0.02269   -0.05248   0.01026  0.01322  0.00972 -0.00525  0.00373 -0.00396   -1.11084   -1.66967  237.38705   0.03007  0.02675  0.19441  0.01041  0.03616  0.05652
2032 273549.000  -3962958.8903   3351668.9253   3694651.6306   1  25   0.0089   0.0097   0.0064  -0.0081   0.0065  -0.0064   0.00    5.1    0.00248   -0.04394   -0.01834   0.01049  0.01311  0.00993 -0.00510  0.00369 -0.00341   -1.02904   -1.65061  237.37206   0.03007  0.02679  0.19598  0.01038  0.03632  0.05658
2032 273550.000  -3962958.8896   3351668.9243   3694651.6293   1  25   0.0087   0.0097   0.0064  -0.0080   0.0065  -0.0064   0.00    5.2    0.01685   -0.02974   -0.02546   0.01086  0.01301  0.01028 -0.00491  0.00372 -0.00215   -1.02726   -1.63381  237.38597   0.02989  0.02680  0.19669  0.01011  0.03589  0.05590
2032 273551.000  -3962958.8458   3351669.0583   3694651.5607   1  24   0.0090   0.0098   0.0067  -0.0081   0.0066  -0.0067   0.00    5.1    0.13371    0.28803   -0.19531   0.01160  0.01288  0.01097 -0.00453  0.00389  0.00316   -0.86383   -1.61396  237.36433   0.02951  0.02676  0.19581  0.00955  0.03471  0.05426
2032 273552.000  -3962958.6680   3351669.5793   3694651.2790   1  24   0.0090   0.0097   0.0067  -0.0081   0.0066  -0.0067   0.00    5.1    0.29849    0.72268   -0.43499   0.01238  0.01276  0.01169 -0.00406  0.00412  0.00515   -0.77366   -1.58916  237.29925   0.02890  0.02667  0.19236  0.00865  0.03252  0.05130
2032 273553.000  -3962958.2070   3351670.9166   3694650.5625   1  25   0.0089   0.0097   0.0067  -0.0081   0.0066  -0.0067   0.00    5.0    0.73819    1.93253   -1.08323   0.01416  0.01260  0.01334 -0.00269  0.00477  0.00825   -0.47160   -1.69571  237.49878   0.02806  0.02654  0.18455  0.00731  0.02885  0.04639
2032 273554.000  -3962957.3363   3351673.4176   3694649.2345   1  25   0.0087   0.0096   0.0065  -0.0079   0.0065  -0.0065   0.00    5.0    1.18279    3.12476   -1.70243   0.01515  0.01244  0.01426 -0.00143  0.00509  0.00961   -0.36834   -1.90548  237.94196   0.02714  0.02640  0.17196  0.00565  0.02363  0.03945
2032 273555.000  -3962956.0306   3351677.0724   3694647.2974   1  25   0.0086   0.0096   0.0065  -0.0079   0.0065  -0.0064   0.00    4.9    1.52609    4.01341   -2.16933   0.01490  0.01231  0.01398 -0.00172  0.00495  0.00910   -0.69885   -1.81142  238.05200   0.02641  0.02633  0.15809  0.00415  0.01766  0.03169
2032 273556.000  -3962954.4754   3351681.3967   3694645.0056   1  25   0.0086   0.0096   0.0065  -0.0079   0.0065  -0.0064   0.00    5.1    1.78677    4.71309   -2.53754   0.01428  0.01221  0.01334 -0.00231  0.00471  0.00800   -0.54889   -1.70946  238.02928   0.02601  0.02633  0.14740  0.00328  0.01157  0.02452
2032 273557.000  -3962952.6513   3351686.5478   3694642.2918   1  25   0.0085   0.0096   0.0065  -0.0079   0.0065  -0.0064   0.00    5.3    2.04678    5.52658   -2.95481   0.01382  0.01213  0.01284 -0.00257  0.00459  0.00705   -0.35628   -1.33020  237.81815   0.02582  0.02637  0.13891  0.00307 -0.00109  0.01710
2032 273558.000  -3962950.6700   3351692.2643   3694639.2900   1  25   0.0092   0.0105   0.0067  -0.0087   0.0070  -0.0068   0.00    4.5    2.10311    5.81493   -3.09672   0.01277  0.01210  0.01181 -0.00329  0.00422  0.00488   -0.24073   -1.11629  237.50106   0.02578  0.02643  0.13315  0.00339 -0.01017  0.00799
2032 273559.000  -3962948.7329   3351698.0762   3694636.2235   1  23   0.0096   0.0106   0.0068  -0.0089   0.0071  -0.0071   0.00    6.7    2.02890    5.77697   -3.07753   0.01175  0.01208  0.01084 -0.00386  0.00384  0.00141    0.02738   -1.26623  237.08629   0.02583  0.02651  0.13041  0.00386 -0.01341 -0.00975
2032 273560.000  -3962946.8425   3351703.8551   3694633.1786   1  22   0.0096   0.0105   0.0071  -0.0089   0.0072  -0.0073   0.00    7.0    2.01042    5.86260   -3.12151   0.01120  0.01207  0.01033 -0.00413  0.00366 -0.00290    0.33253   -1.10606  236.73202   0.02591  0.02660  0.12966  0.00429 -0.01545 -0.01439
2032 273561.000  -3962944.9437   3351709.7944   3694630.0439   1  21   0.0098   0.0105   0.0075  -0.0088   0.0071  -0.0076   0.00    6.4    1.97635    5.83303   -3.11214   0.01076  0.01207  0.00995 -0.00437  0.00348 -0.00395    0.15854   -0.82364  236.40778   0.02600  0.02669  0.12984  0.00464 -0.01695 -0.01709
2032 273562.000  -3962943.1923   3351715.4747   3694627.0776   1  16   0.0118   0.0142   0.0104  -0.0115   0.0105  -0.0102   0.00    5.0    1.81500    5.47530   -2.88984   0.01039  0.01215  0.00972 -0.00465  0.00343 -0.00450    0.27891   -0.69643  236.26620   0.02608  0.02678  0.13087  0.00485 -0.01781 -0.01847
2032 273563.000  -3962941.9701   3351721.0487   3694624.6892   2   9   0.0927   0.1062   0.0785  -0.0812   0.0677  -0.0671   0.00    2.0    1.72774    5.13632   -2.63735   0.01593  0.01828  0.01496 -0.00747  0.00465 -0.00574    0.02864   -0.52880  236.86851   0.02708  0.02750  0.13270  0.00481 -0.01966 -0.01979
2032 273564.001  -3962940.1888   3351726.0393   3694622.2085   3   2   0.1053   0.1203   0.0904  -0.0881   0.0726  -0.0725   0.00    0.0    1.86076    4.85944   -2.26468   0.01779  0.02024  0.01681 -0.00685  0.00321 -0.00435    0.26257   -0.51736  239.94791   0.02768  0.02809  0.13400  0.00480 -0.01978 -0.02022
2032 273565.000  -3962938.1429   3351730.7493   3694620.2513   2   7   0.1197   0.1362   0.1042  -0.0946   0.0765  -0.0772   0.00    0.0    2.28372    4.55837   -1.59466   0.01995  0.02241  0.01873 -0.00547 -0.00221  0.00149   -0.17829   -1.12868  247.85615   0.02829  0.02868  0.13530  0.00477 -0.01986 -0.02063
2032 273566.000  -3962935.5480   3351735.1699   3694619.3080   2  11   0.1322   0.1413   0.1073  -0.1042   0.0727  -0.0753   0.00    0.0    3.01717    4.13338   -0.47152   0.02181  0.02305  0.01932 -0.00659 -0.00491  0.00547   -0.65119   -1.80607  262.47142   0.02866  0.02877  0.13601  0.00480 -0.01832 -0.02061
2032 273567.000  -3962932.1898   3351738.8885   3694619.4540   2   9   0.1448   0.1415   0.1078  -0.1085   0.0747  -0.0824   0.00    0.0    3.50772    3.52193    0.52156   0.02355  0.02326  0.01926 -0.00492 -0.00479  0.00503   -0.90770   -2.16690  276.14028   0.02863  0.02886  0.13620  0.00501 -0.01618 -0.01973
2032 273568.000  -3962928.5037   3351742.0197   3694620.4075   2   4   0.1655   0.1499   0.1230  -0.1157   0.0694  -0.0861   0.00    0.0    3.86315    2.85744    1.43181   0.02666  0.02492  0.02165  0.00097 -0.00822  0.00819   -0.96327   -2.53745  289.10986   0.02916  0.02918  0.13682  0.00449 -0.01454 -0.01969
2032 273569.002  -3962924.5666   3351744.4836   3694622.2795   3   2   0.1896   0.1704   0.1423  -0.1235   0.0679  -0.0886   0.00    0.0    4.00714    2.06037    2.32218   0.03043  0.02832  0.02465  0.00786 -0.01045  0.01191   -1.27460   -2.44213  302.82145   0.02969  0.02970  0.13814  0.00447 -0.01442 -0.02011
2032 273570.002  -3962920.5388   3351746.1021   3694625.0043   3   2   0.2174   0.1945   0.1646  -0.1300   0.0633  -0.0882   0.00    0.0    3.89712    1.20743    3.01181   0.03456  0.03213  0.02822  0.01175 -0.01300  0.01587   -1.00153   -1.93446  315.04151   0.03017  0.03017  0.13946  0.00444 -0.01424 -0.02048
2032 273571.000  -3962917.1456   3351746.9980   3694627.8414   2   8   0.2208   0.2200   0.1766  -0.1325   0.0633  -0.1151   0.00    0.0    3.18491    0.64979    2.75174   0.03415  0.03552  0.02931  0.01364 -0.01533  0.01350   -0.80648   -1.31931  319.98888   0.02928  0.03039  0.13863  0.00357 -0.01225 -0.01493
2032 273572.000  -3962914.2168   3351747.6468   3694630.3348   2   9   0.2169   0.2197   0.1739  -0.1356   0.0742  -0.1156   0.00    0.0    2.53422    0.29674    2.40824   0.03357  0.03564  0.02943  0.01298 -0.01515  0.01371   -0.86753   -1.27255  324.11609   0.02848  0.02951  0.13809  0.00365 -0.00747 -0.00774
2032 273573.000  -3962912.2402   3351748.0100   3694632.2063   2  20   0.2084   0.2150   0.1668  -0.1362   0.0843  -0.1163   0.00    0.0    1.34776    0.02064    1.39939   0.03222  0.03548  0.02890  0.01234 -0.01460  0.01305   -0.99570   -1.20873  325.60201   0.02733  0.02837  0.13769  0.00367  0.00419  0.01091
2032 273574.000  -3962911.3162   3351748.1032   3694633.0283   2  17   0.2021   0.2118   0.1616  -0.1357   0.0904  -0.1152   0.00    0.0    0.43531   -0.13832    0.55282   0.03147  0.03569  0.02855  0.01265 -0.01417  0.01271   -0.85813   -1.19731  325.87049   0.02634  0.02733  0.13794  0.00377  0.00470  0.01579
