% program   : GINav v0.1.0
% obs start : 2018/12/19 03:56:00.0
% obs end   : 2018/12/19 04:02:04.0
% mode      : PPK/INS TC
% system    : GPS GLONASS GALILEO BDS QZSS
% nfreqs    : 1
% elev mask : 15.0 deg
% ephemeris : broadcast
% ionos opt : broadcast model
% trops opt : Saastamoinen model
%
%  GPST              x-ecef(m)      y-ecef(m)      z-ecef(m)   Q  ns   sdx(m)   sdy(m)   sdz(m)  sdxy(m)  sdyz(m)  sdzx(m) age(s)  ratio    vx(m/s)    vy(m/s)    vz(m/s)      sdvx     sdvy     sdvz    sdvxy    sdvyz    sdvzx pitch(deg)  roll(deg)   yaw(deg)       sdp      sdr      sdy     sdpr     sdry     sdyp
2032 273386.000  -3963423.6394   3350882.3296   3694868.8855   3   0  27.8149  26.8883  29.8900 -12.2578   1.1026  -1.1991   0.00    0.0    1.43216    0.01301    1.58108  10.00000 10.00000 10.00000  0.00000 -0.00000  0.00000    0.00000    0.00000  334.01334   0.30000  0.30000  0.50000  0.00000  0.00000  0.00000
2032 273387.000  -3963421.8119   3350882.3023   3694870.9479   1  20   0.0083   0.0098   0.0077  -0.0074   0.0058  -0.0067   0.00    7.4    1.79860   -0.25836    2.22143   9.38979  9.35126  9.48483 -1.46410  0.13261 -0.14332    0.20602    0.34473  335.16005   0.30004  0.30004  0.50003  0.00000 -0.00025 -0.00308
2032 273388.000  -3963419.6347   3350882.3149   3694873.3291   1  20   0.0083   0.0098   0.0077  -0.0074   0.0058  -0.0067   0.00    7.3    2.38503   -0.03737    2.55314   0.35715  0.44640  0.33171 -0.30205  0.24435 -0.29011    0.16807    0.37230  334.34020   0.30011  0.30011  0.50007 -0.00005  0.00104 -0.00435
2032 273389.000  -3963417.2429   3350882.4465   3694875.9524   1  20   0.0083   0.0098   0.0077  -0.0074   0.0058  -0.0067   0.00    9.7    2.53585   -0.04131    2.75151   0.20609  0.25651  0.19172 -0.17160  0.13785 -0.16358    0.36659    0.50615  333.07300   0.29428  0.29583  0.50007 -0.03887  0.01966  0.01448
2032 273390.000  -3963414.7853   3350882.5957   3694878.5473   1  19   0.0087   0.0106   0.0078  -0.0081   0.0062  -0.0070   0.00    8.8    2.48318   -0.08682    2.69653   0.14798  0.18355  0.13890 -0.11671  0.09177 -0.11064    0.24661    0.69367  331.86330   0.27444  0.28084  0.50004 -0.07649  0.03588  0.03134
2032 273391.000  -3963412.3184   3350882.7903   3694881.0732   1  19   0.0087   0.0106   0.0078  -0.0081   0.0062  -0.0070   0.00   11.7    2.50445   -0.08548    2.70109   0.11813  0.14830  0.11233 -0.08561  0.06274 -0.08160    0.68872    0.70797  330.74974   0.24090  0.25369  0.50001 -0.10262  0.04841  0.04605
2032 273392.000  -3963409.6918   3350883.0832   3694883.7518   1  19   0.0087   0.0106   0.0078  -0.0081   0.0062  -0.0070   0.00   10.9    2.75166   -0.00487    2.90115   0.09913  0.12786  0.09561 -0.06525  0.04005 -0.06456    0.75505    0.57250  329.56655   0.20299  0.21973  0.49999 -0.10927  0.06015  0.05326
2032 273393.000  -3963406.7751   3350883.4742   3694886.6379   1  20   0.0087   0.0106   0.0078  -0.0081   0.0062  -0.0070   0.00   11.7    3.00172    0.13345    3.07530   0.08525  0.11342  0.08355 -0.05144  0.02070 -0.05406    0.93346    0.18714  328.40875   0.16860  0.18580  0.49997 -0.10180  0.07053  0.05188
2032 273394.000  -3963403.6725   3350883.9573   3694889.6559   1  20   0.0085   0.0102   0.0077  -0.0078   0.0060  -0.0069   0.00   14.0    3.10911    0.25682    3.08013   0.07444  0.10138  0.07414 -0.04193 -0.00859 -0.04705    0.84679   -0.31605  327.45159   0.14053  0.15610  0.50005 -0.08854  0.07578  0.04742
2032 273395.000  -3963400.5205   3350884.4439   3694892.7041   1  19   0.0087   0.0106   0.0078  -0.0081   0.0062  -0.0070   0.00   14.2    3.10705    0.29217    3.07375   0.06603  0.09128  0.06650 -0.03571 -0.01543 -0.04200    0.91809   -0.49785  327.40015   0.11909  0.13224  0.50019 -0.07484  0.07589  0.04501
2032 273396.000  -3963397.4276   3350884.9151   3694895.7082   1  19   0.0087   0.0106   0.0078  -0.0081   0.0062  -0.0070   0.00   14.8    2.95225    0.28328    2.92214   0.05946  0.08294  0.06032 -0.03190 -0.01565 -0.03830    0.83436   -0.61852  327.51642   0.10335  0.11398  0.50028 -0.06282  0.07211  0.04654
2032 273397.000  -3963394.5290   3350885.3564   3694898.5301   1  20   0.0087   0.0106   0.0078  -0.0081   0.0062  -0.0070   0.00   15.6    2.73456    0.25507    2.69189   0.05434  0.07608  0.05527 -0.02972 -0.01360 -0.03559    1.02379   -0.68161  327.63595   0.09201  0.10031  0.50008 -0.05287  0.06427  0.05115
2032 273398.000  -3963391.8554   3350885.7698   3694901.1515   1  19   0.0091   0.0105   0.0081  -0.0080   0.0063  -0.0075   0.00   11.0    2.47084    0.23986    2.45952   0.05039  0.07033  0.05102 -0.02863 -0.00922 -0.03359    1.06719   -0.66874  327.60983   0.08379  0.09016  0.49946 -0.04464  0.05328  0.05648
2032 273399.000  -3963389.3814   3350886.1404   3694903.5469   1  21   0.0091   0.0104   0.0080  -0.0080   0.0064  -0.0075   0.00   11.4    2.31972    0.21733    2.28729   0.04735  0.06552  0.04749 -0.02820  0.00447 -0.03217    1.18750   -0.53485  327.62221   0.07799  0.08285  0.49851 -0.03817  0.03970  0.06105
2032 273400.000  -3963386.8355   3350886.5403   3694906.0215   1  20   0.0091   0.0104   0.0078  -0.0081   0.0065  -0.0073   0.00   10.8    2.45953    0.26555    2.44294   0.04497  0.06133  0.04442 -0.02840  0.01127 -0.03098    1.21094   -0.63929  327.63321   0.07382  0.07752  0.49817 -0.03285  0.02888  0.06262
2032 273401.000  -3963384.2946   3350886.9419   3694908.4776   1  20   0.0089   0.0106   0.0080  -0.0080   0.0061  -0.0073   0.00   10.2    2.30832    0.23402    2.28544   0.04300  0.05801  0.04197 -0.02847  0.01463 -0.03012    1.12025   -0.71655  327.70969   0.07089  0.07372  0.49802 -0.02859  0.01791  0.06310
2032 273402.000  -3963381.9333   3350887.2766   3694910.8023   1  20   0.0089   0.0105   0.0078  -0.0081   0.0063  -0.0072   0.00    9.7    2.18789    0.17812    2.24979   0.04137  0.05518  0.03989 -0.02864  0.01686 -0.02937    1.31203   -0.65397  328.60444   0.06886  0.07099  0.49773 -0.02521 -0.01488  0.06410
2032 273403.000  -3963379.5332   3350887.5574   3694913.2075   1  21   0.0088   0.0104   0.0077  -0.0081   0.0064  -0.0071   0.00   10.0    2.25328    0.12034    2.36814   0.03998  0.05270  0.03809 -0.02877  0.01841 -0.02867    1.10407   -0.58947  329.69815   0.06745  0.06905  0.49783 -0.02244 -0.02262  0.06462
2032 273404.000  -3963376.9018   3350887.8645   3694915.8088   1  22   0.0087   0.0101   0.0076  -0.0078   0.0063  -0.0070   0.00    7.6    2.61742    0.20209    2.67004   0.03879  0.05054  0.03658 -0.02864  0.01919 -0.02803    1.36217    0.03467  328.80496   0.06643  0.06767  0.49807 -0.02008 -0.02218  0.06365
2032 273405.000  -3963373.7316   3350888.4414   3694918.7533   1  22   0.0084   0.0099   0.0073  -0.0077   0.0062  -0.0066   0.00    7.9    3.15058    0.44059    2.98638   0.03766  0.04874  0.03542 -0.02833  0.01925 -0.02735    0.82243   -0.66743  326.10212   0.06562  0.06667  0.49706 -0.01798 -0.01165  0.05929
2032 273406.000  -3963370.0684   3350889.1951   3694922.0016   1  22   0.0083   0.0098   0.0071  -0.0077   0.0063  -0.0065   0.00    8.4    3.62703    0.63740    3.27851   0.03654  0.04713  0.03436 -0.02789  0.01911 -0.02658    0.38034   -0.87343  324.32275   0.06499  0.06596  0.49359 -0.01626  0.01872  0.05128
2032 273407.000  -3963365.9745   3350889.9665   3694925.6394   1  21   0.0086   0.0103   0.0072  -0.0081   0.0066  -0.0067   0.00    8.8    3.98996    0.57620    3.66944   0.03546  0.04568  0.03306 -0.02717  0.01925 -0.02585   -0.15752   -0.98460  325.52358   0.06456  0.06548  0.48879 -0.01500  0.03090  0.04110
2032 273408.000  -3963361.7059   3350890.6092   3694929.5137   1  21   0.0087   0.0103   0.0075  -0.0082   0.0066  -0.0070   0.00   13.3    3.97811    0.40919    3.78313   0.03434  0.04386  0.03174 -0.02656  0.01982 -0.02490   -0.66598   -0.91480  326.99017   0.06430  0.06516  0.48563 -0.01419  0.03976  0.03243
2032 273409.000  -3963357.4876   3350891.1373   3694933.3750   1  20   0.0087   0.0103   0.0075  -0.0081   0.0066  -0.0070   0.00   15.1    3.93732    0.29601    3.72872   0.03321  0.04219  0.03070 -0.02594  0.01983 -0.02395   -0.81800   -0.75410  327.38391   0.06413  0.06496  0.48467 -0.01368  0.04529  0.02807
2032 273410.000  -3963353.2771   3350891.6890   3694937.1987   1  19   0.0091   0.0103   0.0079  -0.0080   0.0065  -0.0074   0.00   15.3    3.91077    0.32054    3.71922   0.03218  0.04082  0.02981 -0.02519  0.01939 -0.02307   -1.05588   -0.83945  326.90327   0.06398  0.06481  0.48471 -0.01344  0.04811  0.02614
2032 273411.000  -3963349.0587   3350892.2391   3694940.9815   1  21   0.0091   0.0106   0.0083  -0.0079   0.0060  -0.0075   0.00    9.8    3.90812    0.32341    3.70227   0.03124  0.03961  0.02899 -0.02435  0.01876 -0.02226   -1.04287   -0.75406  326.64927   0.06384  0.06468  0.48504 -0.01340  0.04915  0.02577
2032 273412.000  -3963344.8671   3350892.7906   3694944.8067   1  23   0.0088   0.0105   0.0078  -0.0080   0.0063  -0.0071   0.00    9.7    3.98109    0.26490    3.82967   0.03036  0.03850  0.02816 -0.02352  0.01808 -0.02143   -1.11033   -0.78829  327.28430   0.06367  0.06454  0.48528 -0.01342  0.04939  0.02703
2032 273413.000  -3963340.4395   3350893.2902   3694948.8769   1  24   0.0085   0.0104   0.0074  -0.0080   0.0064  -0.0069   0.00   10.0    4.29589    0.30856    4.16597   0.02956  0.03745  0.02729 -0.02264  0.01732 -0.02066   -0.89625   -0.77043  327.38306   0.06347  0.06443  0.48545 -0.01347  0.05117  0.02793
2032 273414.000  -3963335.6350   3350893.9573   3694953.1925   1  23   0.0086   0.0103   0.0074  -0.0079   0.0065  -0.0070   0.00    8.3    4.68356    0.49621    4.34143   0.02872  0.03644  0.02653 -0.02179  0.01642 -0.01995   -1.22932   -0.66833  325.51522   0.06324  0.06431  0.48549 -0.01357  0.05385  0.02456
2032 273415.000  -3963330.4676   3350894.8595   3694957.6068   1  23   0.0086   0.0102   0.0073  -0.0079   0.0066  -0.0070   0.00    6.3    5.02324    0.75402    4.43841   0.02793  0.03543  0.02588 -0.02097  0.01552 -0.01920   -1.32343   -0.62886  323.52366   0.06300  0.06416  0.48472 -0.01381  0.05568  0.01074
2032 273416.000  -3963325.0429   3350895.8256   3694962.1679   1  23   0.0085   0.0101   0.0071  -0.0080   0.0067  -0.0068   0.00    7.7    5.24912    0.75096    4.61704   0.02711  0.03451  0.02506 -0.02012  0.01487 -0.01856   -1.79148   -0.87622  323.77379   0.06278  0.06397  0.48361 -0.01408  0.05711 -0.02117
2032 273417.000  -3963319.5865   3350896.7406   3694966.8283   1  23   0.0084   0.0101   0.0071  -0.0079   0.0067  -0.0068   0.00    7.9    5.27118    0.66318    4.67952   0.02630  0.03357  0.02428 -0.01931  0.01435 -0.01792   -1.86846   -1.15981  324.47200   0.06256  0.06376  0.48368 -0.01424  0.05859 -0.02816
2032 273418.000  -3963314.0245   3350897.5460   3694971.6505   1  23   0.0084   0.0101   0.0070  -0.0079   0.0068  -0.0068   0.00    9.0    5.43510    0.58095    4.94241   0.02558  0.03276  0.02356 -0.01853  0.01369 -0.01728   -1.88695   -1.15357  325.44562   0.06233  0.06357  0.48396 -0.01426  0.06068 -0.03077
2032 273419.000  -3963308.2772   3350898.2946   3694976.7014   1  23   0.0084   0.0101   0.0070  -0.0079   0.0068  -0.0068   0.00   10.3    5.60188    0.54137    5.16376   0.02487  0.03194  0.02290 -0.01779  0.01304 -0.01667   -1.77310   -1.11360  325.96981   0.06210  0.06343  0.48377 -0.01420  0.06356 -0.03187
2032 273420.000  -3963302.4220   3350899.0349   3694981.8870   1  24   0.0084   0.0100   0.0070  -0.0079   0.0068  -0.0068   0.00   11.1    5.69265    0.56254    5.21541   0.02413  0.03108  0.02227 -0.01714  0.01239 -0.01613   -1.92905   -1.11659  325.77623   0.06186  0.06330  0.48364 -0.01402  0.06592 -0.03175
2032 273421.000  -3963296.5052   3350899.7790   3694987.1074   1  24   0.0082   0.0100   0.0069  -0.0079   0.0067  -0.0066   0.00   11.5    5.72102    0.56843    5.26952   0.02345  0.03031  0.02169 -0.01648  0.01173 -0.01561   -1.92818   -1.22063  325.90991   0.06162  0.06314  0.48384 -0.01372  0.06714 -0.03098
2032 273422.000  -3963290.5926   3350900.5350   3694992.3746   1  22   0.0090   0.0101   0.0071  -0.0081   0.0068  -0.0071   0.00   12.2    5.74478    0.57325    5.27061   0.02281  0.02959  0.02113 -0.01583  0.01108 -0.01514   -2.02412   -1.51330  325.94534   0.06138  0.06294  0.48385 -0.01331  0.06726 -0.02895
2032 273423.000  -3963284.6116   3350901.2931   3694997.6503   1  23   0.0092   0.0102   0.0074  -0.0082   0.0069  -0.0074   0.00   12.2    5.87027    0.63204    5.33376   0.02222  0.02883  0.02054 -0.01518  0.01057 -0.01468   -1.91845   -1.37981  325.75416   0.06116  0.06273  0.48377 -0.01285  0.06659 -0.02701
2032 273424.000  -3963278.5256   3350902.1244   3695003.0076   1  20   0.0093   0.0102   0.0076  -0.0080   0.0067  -0.0076   0.00   15.1    5.96390    0.70482    5.38468   0.02167  0.02812  0.01999 -0.01456  0.01005 -0.01423   -1.93026   -1.46980  325.58132   0.06095  0.06252  0.48379 -0.01242  0.06560 -0.02649
2032 273425.000  -3963272.3644   3350902.9614   3695008.4012   1  19   0.0097   0.0102   0.0081  -0.0081   0.0067  -0.0080   0.00   13.6    6.02473    0.72089    5.41985   0.02114  0.02745  0.01949 -0.01397  0.00953 -0.01381   -1.97473   -1.34674  325.70232   0.06077  0.06230  0.48360 -0.01200  0.06416 -0.02640
2032 273426.000  -3963266.1704   3350903.7951   3695013.8309   1  18   0.0098   0.0102   0.0084  -0.0081   0.0068  -0.0082   0.00    9.1    6.04455    0.71537    5.44538   0.02063  0.02683  0.01904 -0.01342  0.00899 -0.01341   -2.05931   -1.35908  326.00207   0.06060  0.06209  0.48320 -0.01158  0.06237 -0.02581
2032 273427.000  -3963260.1569   3350904.6269   3695019.0813   1  18   0.0098   0.0102   0.0084  -0.0081   0.0068  -0.0082   0.00    9.9    5.57659    0.67657    4.99061   0.02029  0.02712  0.01896 -0.01216  0.00718 -0.01340   -2.50423   -1.28827  326.01246   0.06044  0.06184  0.48054 -0.01103  0.05844 -0.02184
2032 273428.000  -3963254.8224   3350905.4128   3695023.7173   1  15   0.0104   0.0122   0.0096  -0.0070   0.0045  -0.0091   0.00    7.3    4.73899    0.66009    4.22366   0.02033  0.02889  0.01946 -0.00923 -0.00372 -0.01402   -2.60942   -1.53267  325.90911   0.06026  0.06152  0.46658 -0.01041  0.04808  0.00499
2032 273429.000  -3963250.5211   3350906.0605   3695027.4379   1  16   0.0105   0.0133   0.0097  -0.0074   0.0050  -0.0092   0.00    7.2    3.55584    0.49214    3.19886   0.02036  0.03141  0.02056 -0.00447 -0.01052 -0.01493   -2.45682   -1.72695  326.65272   0.06008  0.06123  0.43193 -0.01006  0.02614  0.02895
2032 273430.000  -3963247.4631   3350906.5301   3695030.1340   1  16   0.0098   0.0130   0.0090  -0.0079   0.0058  -0.0085   0.00    5.7    2.46058    0.33230    2.23774   0.02004  0.03167  0.02067 -0.00222 -0.01161 -0.01494   -2.01674   -1.61943  327.70378   0.05994  0.06113  0.38176 -0.01058 -0.02918  0.04033
2032 273431.000  -3963244.9370   3350906.8666   3695032.3864   1  18   0.0095   0.0129   0.0088  -0.0081   0.0060  -0.0082   0.00    5.7    2.39990    0.32454    2.22753   0.01903  0.02772  0.01877 -0.00821 -0.00578 -0.01320   -1.53126   -1.60701  328.45358   0.05984  0.06121  0.34836 -0.01153 -0.04309  0.04577
2032 273432.000  -3963242.3923   3350907.2177   3695034.6704   1  18   0.0093   0.0126   0.0085  -0.0083   0.0065  -0.0080   0.00    5.7    2.42966    0.33679    2.28056   0.01832  0.02529  0.01754 -0.00971  0.00365 -0.01204   -1.05448   -1.49695  328.70378   0.05975  0.06134  0.33448 -0.01228 -0.05049  0.04871
2032 273433.000  -3963239.8412   3350907.5985   3695036.9916   1  19   0.0092   0.0124   0.0084  -0.0084   0.0067  -0.0078   0.00    5.6    2.37679    0.35090    2.22869   0.01783  0.02397  0.01682 -0.01001  0.00534 -0.01134   -1.00669   -1.12467  328.45664   0.05964  0.06144  0.32943 -0.01278 -0.05541  0.05050
2032 273434.000  -3963237.7292   3350907.9893   3695038.8957   1  20   0.0088   0.0117   0.0080  -0.0084   0.0069  -0.0074   0.00    6.4    1.53249    0.29555    1.42605   0.01764  0.02421  0.01678 -0.00907  0.00373 -0.01137   -1.18260   -1.17718  327.52824   0.05952  0.06157  0.32533 -0.01324 -0.05965  0.05178
2032 273435.000  -3963236.6288   3350908.2111   3695039.8432   1  20   0.0088   0.0114   0.0079  -0.0084   0.0070  -0.0074   0.00    6.5    0.56331    0.15585    0.55104   0.01743  0.02446  0.01682 -0.00820 -0.00162 -0.01144   -0.50241   -1.36455  326.78133   0.05941  0.06182  0.31700 -0.01399 -0.06387  0.05295
2032 273436.000  -3963236.1091   3350908.3256   3695040.3083   1  19   0.0095   0.0114   0.0081  -0.0090   0.0076  -0.0079   0.00    6.5    0.45076    0.12567    0.45981   0.01687  0.02275  0.01604 -0.00903  0.00440 -0.01062    0.29751   -0.96976  326.41941   0.05936  0.06210  0.31019 -0.01483 -0.06741  0.05424
2032 273437.000  -3963235.5070   3350908.4689   3695040.8422   1  19   0.0095   0.0114   0.0081  -0.0090   0.0076  -0.0079   0.00    6.5    0.50253    0.13417    0.52857   0.01642  0.02161  0.01548 -0.00923  0.00512 -0.01002    0.54078   -0.80783  326.01484   0.05934  0.06230  0.30915 -0.01542 -0.06999  0.05543
2032 273438.000  -3963235.2279   3350908.5470   3695041.1036   1  19   0.0094   0.0111   0.0081  -0.0089   0.0076  -0.0078   0.00    8.4   -0.04659   -0.00837    0.00391   0.01612  0.02122  0.01527 -0.00893  0.00478 -0.00980    0.67375   -0.73608  325.77937   0.05937  0.06246  0.30921 -0.01594 -0.07203  0.05656
2032 273439.000  -3963235.2347   3350908.5518   3695041.1006   1  21   0.0094   0.0111   0.0080  -0.0089   0.0076  -0.0078   0.00    9.0   -0.08100   -0.01707    0.00731   0.01583  0.02070  0.01495 -0.00867  0.00446 -0.00947    0.79578   -0.71369  325.78568   0.05942  0.06258  0.30975 -0.01639 -0.07359  0.05758
2032 273440.000  -3963235.2311   3350908.5478   3695041.0986   1  21   0.0091   0.0105   0.0077  -0.0084   0.0073  -0.0075   0.00    9.6   -0.07529   -0.03042    0.02566   0.01561  0.02053  0.01477 -0.00813  0.00331 -0.00929    0.79948   -0.70821  325.74109   0.05946  0.06256  0.30996 -0.01653 -0.07399  0.05790
2032 273441.000  -3963235.2340   3350908.5514   3695041.1008   1  23   0.0089   0.0103   0.0076  -0.0082   0.0071  -0.0074   0.00   10.2   -0.07055   -0.04167    0.03651   0.01545  0.02055  0.01467 -0.00744  0.00034 -0.00922    0.80612   -0.71111  325.63664   0.05948  0.06239  0.30854 -0.01636 -0.07314  0.05740
2032 273442.000  -3963235.2303   3350908.5485   3695041.0985   1  25   0.0086   0.0101   0.0074  -0.0080   0.0070  -0.0071   0.00   10.4   -0.07033   -0.04888    0.04276   0.01531  0.02060  0.01459 -0.00675 -0.00309 -0.00917    0.81659   -0.72653  325.46582   0.05948  0.06212  0.30509 -0.01594 -0.07114  0.05609
2032 273443.000  -3963235.2362   3350908.5508   3695041.1014   1  25   0.0082   0.0100   0.0071  -0.0078   0.0068  -0.0067   0.00   10.7   -0.06892   -0.05218    0.04337   0.01516  0.02058  0.01449 -0.00614 -0.00408 -0.00911    0.82570   -0.75043  325.25429   0.05946  0.06177  0.29986 -0.01532 -0.06822  0.05411
2032 273444.000  -3963235.2354   3350908.5544   3695041.1012   1  25   0.0079   0.0097   0.0069  -0.0075   0.0066  -0.0064   0.00    4.2   -0.06584   -0.05159    0.04019   0.01500  0.02047  0.01436 -0.00567 -0.00456 -0.00900    0.82949   -0.76866  325.02560   0.05944  0.06140  0.29343 -0.01460 -0.06471  0.05164
2032 273445.000  -3963235.2303   3350908.5455   3695041.0968   1  25   0.0078   0.0097   0.0068  -0.0075   0.0066  -0.0064   0.00    4.6   -0.06453   -0.04976    0.03693   0.01484  0.02027  0.01421 -0.00539 -0.00471 -0.00887    0.83772   -0.79575  324.80270   0.05941  0.06103  0.28646 -0.01385 -0.06090  0.04883
2032 273446.000  -3963235.1115   3350908.0953   3695041.2381   2  24   0.1079   0.1296   0.0927  -0.0997   0.0828  -0.0867   0.00    2.7   -0.05956   -0.09723    0.04637   0.01833  0.02474  0.01686 -0.01020  0.00682 -0.01226    0.85194   -0.82665  324.58262   0.05938  0.06069  0.27960 -0.01312 -0.05700  0.04582
2032 273447.000  -3963235.1273   3350908.1167   3695041.2375   2  26   0.1067   0.1283   0.0916  -0.0986   0.0819  -0.0857   0.00    2.6   -0.06026   -0.08826    0.04062   0.01811  0.02440  0.01665 -0.01011  0.00687 -0.01205    0.86595   -0.85176  324.38086   0.05935  0.06039  0.27307 -0.01244 -0.05321  0.04272
2032 273448.000  -3963235.1445   3350908.1344   3695041.2370   2  25   0.1056   0.1270   0.0906  -0.0976   0.0812  -0.0847   0.00    2.7   -0.06226   -0.08059    0.03518   0.01790  0.02405  0.01643 -0.01008  0.00700 -0.01185    0.88101   -0.87299  324.21651   0.05933  0.06012  0.26721 -0.01185 -0.04961  0.03959
2032 273449.000  -3963235.1588   3350908.1477   3695041.2386   2  25   0.1045   0.1258   0.0896  -0.0967   0.0804  -0.0838   0.00    2.7   -0.06413   -0.07296    0.02752   0.01769  0.02369  0.01621 -0.01006  0.00715 -0.01164    0.88580   -0.88961  324.07165   0.05932  0.05989  0.26214 -0.01136 -0.04627  0.03645
2032 273450.000  -3963235.1604   3350908.1430   3695041.2248   2  25   0.1034   0.1245   0.0887  -0.0957   0.0797  -0.0829   0.00    2.8   -0.06362   -0.06999    0.01998   0.01749  0.02334  0.01600 -0.01006  0.00730 -0.01145    0.89706   -0.90452  323.95128   0.05931  0.05970  0.25791 -0.01096 -0.04320  0.03332
2032 273451.000  -3963235.1689   3350908.1513   3695041.2208   2  26   0.1023   0.1234   0.0877  -0.0947   0.0789  -0.0820   0.00    2.9   -0.06691   -0.06586    0.01326   0.01730  0.02300  0.01579 -0.01005  0.00745 -0.01125    0.90280   -0.90900  323.83979   0.05930  0.05953  0.25448 -0.01067 -0.04040  0.03023
2032 273452.000  -3963235.1748   3350908.1522   3695041.2190   2  25   0.1013   0.1222   0.0868  -0.0938   0.0782  -0.0811   0.00    3.0   -0.07013   -0.06338    0.00776   0.01711  0.02268  0.01559 -0.01004  0.00759 -0.01107    0.90876   -0.91144  323.74739   0.05929  0.05939  0.25181 -0.01046 -0.03784  0.02717
2032 273453.000  -3963235.2338   3350908.5529   3695041.0963   1  25   0.0077   0.0097   0.0066  -0.0074   0.0065  -0.0062   0.00    3.0   -0.07019   -0.01160   -0.00810   0.01350  0.01779  0.01274 -0.00587 -0.00094 -0.00745    0.91439   -0.92053  323.64865   0.05928  0.05927  0.24976 -0.01033 -0.03555  0.02414
2032 273454.000  -3963235.2373   3350908.5492   3695041.0990   1  25   0.0077   0.0097   0.0066  -0.0074   0.0065  -0.0062   0.00    3.1   -0.06911   -0.01175   -0.01184   0.01337  0.01753  0.01259 -0.00594  0.00121 -0.00731    0.92713   -0.93119  323.57973   0.05927  0.05917  0.24838 -0.01027 -0.03344  0.02108
2032 273455.000  -3963235.2386   3350908.5562   3695041.1017   1  25   0.0077   0.0097   0.0066  -0.0074   0.0065  -0.0062   0.00    3.2   -0.06660   -0.01082   -0.01691   0.01324  0.01730  0.01244 -0.00599  0.00187 -0.00719    0.93316   -0.94633  323.52273   0.05925  0.05909  0.24751 -0.01026 -0.03154  0.01797
2032 273456.000  -3963235.2349   3350908.5522   3695041.0982   1  26   0.0077   0.0097   0.0066  -0.0074   0.0065  -0.0062   0.00    3.2   -0.06543   -0.01087   -0.02245   0.01312  0.01708  0.01231 -0.00602  0.00228 -0.00707    0.92659   -0.96477  323.47710   0.05924  0.05903  0.24708 -0.01030 -0.02981  0.01474
2032 273457.000  -3963235.2392   3350908.5574   3695041.0975   1  25   0.0077   0.0097   0.0066  -0.0074   0.0065  -0.0062   0.00    3.3   -0.06196   -0.00804   -0.02678   0.01301  0.01688  0.01219 -0.00604  0.00256 -0.00697    0.91233   -0.97351  323.43637   0.05922  0.05898  0.24702 -0.01037 -0.02826  0.01122
2032 273458.000  -3963235.2413   3350908.5602   3695041.1023   1  25   0.0077   0.0097   0.0066  -0.0074   0.0065  -0.0062   0.00    3.3   -0.05757   -0.00694   -0.02718   0.01290  0.01670  0.01208 -0.00604  0.00276 -0.00689    0.90954   -0.97428  323.40901   0.05920  0.05894  0.24725 -0.01045 -0.02687  0.00686
2032 273459.000  -3963235.2162   3350908.5663   3695041.1274   1  26   0.0077   0.0097   0.0066  -0.0074   0.0065  -0.0062   0.00    3.3    0.01769    0.01163    0.03686   0.01282  0.01658  0.01199 -0.00602  0.00280 -0.00684    0.96873   -0.97107  323.34548   0.05918  0.05892  0.24766 -0.01055 -0.02554 -0.00497
2032 273460.000  -3963234.9205   3350908.6468   3695041.3847   1  25   0.0077   0.0097   0.0066  -0.0074   0.0065  -0.0062   0.00    3.5    0.62036    0.15661    0.54546   0.01293  0.01697  0.01213 -0.00579  0.00064 -0.00710    1.41060   -0.81517  322.94888   0.05915  0.05888  0.24740 -0.01069 -0.02344 -0.01135
2032 273461.000  -3963233.7683   3350908.9710   3695042.3550   1  24   0.0081   0.0098   0.0066  -0.0076   0.0066  -0.0064   0.00    5.8    1.46484    0.46537    1.24960   0.01313  0.01774  0.01255 -0.00556 -0.00387 -0.00754    1.54566   -0.33382  320.29027   0.05912  0.05879  0.24311 -0.01098 -0.01811 -0.01826
2032 273462.000  -3963232.0090   3350909.7093   3695043.6353   1  24   0.0081   0.0098   0.0067  -0.0076   0.0066  -0.0064   0.00    6.1    1.71899    0.77986    1.24056   0.01299  0.01729  0.01235 -0.00631 -0.00288 -0.00709    1.49739   -0.36875  313.19994   0.05908  0.05863  0.23679 -0.01142 -0.01178 -0.02465
2032 273463.000  -3963230.3361   3350910.7038   3695044.6750   1  24   0.0081   0.0098   0.0067  -0.0076   0.0066  -0.0064   0.00    6.0    1.73124    1.05763    0.99429   0.01305  0.01703  0.01202 -0.00668 -0.00128 -0.00630    1.87613   -0.60973  304.75752   0.05897  0.05821  0.23391 -0.01162 -0.01317 -0.02951
2032 273464.000  -3963228.2436   3350912.2958   3695045.5974   1  24   0.0092   0.0103   0.0070  -0.0084   0.0070  -0.0071   0.00   10.0    2.27075    1.85862    0.84888   0.01387  0.01766  0.01246 -0.00690 -0.00361 -0.00482    1.74868   -0.35335  292.17986   0.05845  0.05691  0.23014 -0.01079 -0.02356 -0.03393
2032 273465.000  -3963225.7237   3350914.9807   3695045.9945   1  23   0.0099   0.0125   0.0084  -0.0099   0.0090  -0.0082   0.00    6.6    2.68862    3.25810    0.04189   0.01593  0.01872  0.01346 -0.00572 -0.00561  0.00250    1.33052    0.55622  273.07843   0.05666  0.05385  0.22200 -0.00665 -0.04061 -0.03605
2032 273466.000  -3963223.3219   3350919.0575   3695045.1171   1  23   0.0115   0.0151   0.0098  -0.0122   0.0110  -0.0097   0.00    6.8    2.26743    4.71506   -1.63543   0.01813  0.02056  0.01448  0.00498 -0.00821  0.00335    1.18156   -0.38665  250.93921   0.05218  0.04902  0.21088  0.00629 -0.05726 -0.03158
2032 273467.000  -3963221.3526   3350924.0071   3695042.9795   1  23   0.0110   0.0145   0.0100  -0.0117   0.0082  -0.0077   0.00    5.6    1.87529    5.54772   -2.85848   0.01835  0.02173  0.01564  0.00746 -0.01093 -0.00263    0.94781   -1.86314  239.27967   0.04484  0.04320  0.20492  0.00247 -0.06589 -0.01639
2032 273468.000  -3963219.3083   3350929.8202   3695040.1313   1  21   0.0114   0.0163   0.0100  -0.0124   0.0110  -0.0090   0.00    6.2    2.11315    6.36263   -3.36153   0.01774  0.02138  0.01575  0.00744 -0.01120 -0.00417    0.84434   -2.41375  236.89031   0.03722  0.03779  0.20414 -0.00759 -0.06832  0.01636
2032 273469.000  -3963216.9878   3350936.5181   3695036.8707   1  21   0.0110   0.0158   0.0093  -0.0120   0.0112  -0.0091   0.00    6.5    2.42177    7.19204   -3.68969   0.01695  0.02053  0.01510  0.00698 -0.01042 -0.00506    0.95632   -1.73538  236.07211   0.03108  0.03360  0.20498 -0.00829 -0.06799  0.02043
2032 273470.000  -3963214.4735   3350944.1263   3695033.0321   1  22   0.0110   0.0158   0.0093  -0.0119   0.0112  -0.0091   0.00    6.6    2.66756    8.06183   -4.22934   0.01617  0.01963  0.01433  0.00634 -0.00936 -0.00564    0.79014   -1.18464  234.87639   0.02665  0.03057  0.20542 -0.00726 -0.06652  0.01917
2032 273471.000  -3963211.7309   3350952.6005   3695028.6686   1  22   0.0110   0.0154   0.0091  -0.0119   0.0109  -0.0091   0.00    7.3    2.92109    8.78313   -4.56522   0.01556  0.01882  0.01357  0.00568 -0.00826 -0.00585    0.68278   -1.06668  234.78640   0.02360  0.02836  0.20507 -0.00544 -0.06460  0.01522
2032 273472.000  -3963208.8192   3350961.5794   3695024.0859   1  22   0.0113   0.0154   0.0095  -0.0121   0.0111  -0.0095   0.00    7.5    3.03716    9.07717   -4.65059   0.01523  0.01820  0.01295  0.00529 -0.00694 -0.00541    0.87182   -1.24749  234.93653   0.02160  0.02631  0.20214 -0.00285 -0.06121  0.00861
2032 273473.000  -3963205.8604   3350970.7616   3695019.3151   1  22   0.0105   0.0154   0.0095  -0.0115   0.0111  -0.0090   0.00    8.0    3.18379    9.37692   -4.87576   0.01474  0.01763  0.01244  0.00473 -0.00563 -0.00520    0.54160   -1.38661  235.09324   0.02036  0.02436  0.19579  0.00234 -0.05638 -0.00662
2032 273474.000  -3963202.6757   3350980.4324   3695014.3150   1  22   0.0102   0.0146   0.0091  -0.0110   0.0105  -0.0087   0.00    9.0    3.40766    9.86983   -5.04830   0.01418  0.01712  0.01196  0.00395 -0.00453 -0.00538    0.57025   -1.43742  235.74388   0.01966  0.02297  0.18943  0.00366 -0.05196 -0.01129
2032 273475.000  -3963199.3076   3350990.5085   3695009.1445   1  22   0.0100   0.0142   0.0089  -0.0108   0.0102  -0.0085   0.00    9.6    3.56890   10.20517   -5.21917   0.01373  0.01663  0.01160  0.00297 -0.00325 -0.00533    0.30882   -1.40916  236.15146   0.01931  0.02203  0.18334  0.00409 -0.04796 -0.01317
2032 273476.000  -3963195.7925   3351000.8617   3695003.8141   1  22   0.0099   0.0140   0.0088  -0.0107   0.0100  -0.0084   0.00   10.1    3.66653   10.35836   -5.31998   0.01344  0.01621  0.01138  0.00191 -0.00123 -0.00508   -0.01620   -0.90437  236.46028   0.01920  0.02142  0.17735  0.00403 -0.04418 -0.01331
2032 273477.000  -3963192.2220   3351011.2988   3694998.3646   1  25   0.0094   0.0135   0.0086  -0.0102   0.0097  -0.0081   0.00   10.1    3.70019   10.41116   -5.42490   0.01315  0.01582  0.01123 -0.00124  0.00232 -0.00486   -0.26023   -1.20345  236.65935   0.01924  0.02102  0.17084  0.00356 -0.04036 -0.01158
2032 273478.000  -3963188.6313   3351021.8029   3694992.8866   1  25   0.0088   0.0124   0.0080  -0.0093   0.0088  -0.0075   0.00   10.1    3.59899   10.61996   -5.38241   0.01284  0.01550  0.01109 -0.00256  0.00303 -0.00486    0.15622   -1.09919  236.82520   0.01935  0.02082  0.16456  0.00281 -0.03671 -0.00763
2032 273479.000  -3963185.0675   3351032.5202   3694987.3325   1  27   0.0085   0.0121   0.0079  -0.0090   0.0085  -0.0072   0.00   18.1    3.52775   10.83662   -5.44240   0.01250  0.01520  0.01095 -0.00341  0.00338 -0.00499    0.81438   -0.81973  236.76357   0.01952  0.02082  0.15964  0.00173 -0.03360  0.00597
2032 273480.000  -3963181.5167   3351043.4153   3694981.6741   1  27   0.0081   0.0110   0.0073  -0.0083   0.0076  -0.0067   0.00   19.3    3.61485   10.78595   -5.59348   0.01228  0.01495  0.01084 -0.00390  0.00371 -0.00501    0.06571   -1.30800  236.90640   0.01971  0.02094  0.15598 -0.00111 -0.03096  0.01174
2032 273481.000  -3963177.9809   3351054.0618   3694976.1336   1  27   0.0079   0.0105   0.0070  -0.0080   0.0072  -0.0065   0.00   17.5    3.56060   10.54743   -5.45308   0.01222  0.01481  0.01080 -0.00409  0.00404 -0.00482    0.14878   -1.20793  237.17450   0.01994  0.02111  0.15205 -0.00222 -0.02826  0.01603
2032 273482.000  -3963174.5532   3351064.5202   3694970.7147   1  26   0.0078   0.0098   0.0067  -0.0075   0.0067  -0.0063   0.00    3.6    3.42855   10.27448   -5.32930   0.01212  0.01468  0.01078 -0.00435  0.00419 -0.00472   -0.12118   -1.21381  237.07280   0.02019  0.02132  0.14819 -0.00280 -0.02553  0.01969
2032 273483.000  -3963171.2302   3351074.6369   3694965.3484   1  26   0.0077   0.0097   0.0067  -0.0074   0.0066  -0.0062   0.00    4.0    3.29564    9.98559   -5.24652   0.01197  0.01458  0.01071 -0.00461  0.00421 -0.00477   -0.12906   -1.62934  237.02893   0.02047  0.02154  0.14468 -0.00309 -0.02291  0.02287
2032 273484.000  -3963167.9548   3351084.4767   3694960.1650   1  26   0.0076   0.0092   0.0064  -0.0071   0.0062  -0.0060   0.00    3.2    3.27226    9.70613   -5.08024   0.01184  0.01451  0.01059 -0.00475  0.00419 -0.00493   -0.28275   -1.45070  237.37208   0.02077  0.02176  0.14193 -0.00317 -0.02040  0.02558
2032 273485.000  -3963164.7269   3351094.0836   3694955.1107   1  26   0.0079   0.0092   0.0064  -0.0073   0.0062  -0.0062   0.00    3.3    3.25914    9.57827   -5.01659   0.01164  0.01444  0.01045 -0.00495  0.00405 -0.00522   -0.27408   -1.74166  237.60423   0.02107  0.02198  0.14030 -0.00304 -0.01808  0.02784
2032 273486.000  -3963161.4614   3351103.6749   3694950.0455   1  26   0.0079   0.0092   0.0064  -0.0073   0.0062  -0.0062   0.00    3.6    3.31414    9.68873   -5.10540   0.01144  0.01434  0.01032 -0.00513  0.00381 -0.00553   -0.27778   -1.61742  237.59022   0.02133  0.02218  0.14024 -0.00278 -0.01616  0.02959
2032 273487.000  -3963158.0961   3351113.5124   3694944.8389   1  26   0.0078   0.0092   0.0063  -0.0072   0.0062  -0.0060   0.00    3.9    3.41064   10.00422   -5.30019   0.01133  0.01423  0.01028 -0.00522  0.00358 -0.00567   -0.29736   -1.22154  237.47320   0.02148  0.02234  0.14142 -0.00243 -0.01480  0.03059
2032 273488.000  -3963154.6605   3351123.5873   3694939.4456   1  26   0.0077   0.0092   0.0063  -0.0072   0.0062  -0.0060   0.00    4.2    3.48133   10.09452   -5.39509   0.01130  0.01416  0.01026 -0.00524  0.00351 -0.00567   -0.67065   -1.76377  237.53545   0.02153  0.02248  0.14288 -0.00207 -0.01399  0.03090
2032 273489.000  -3963151.2045   3351133.5257   3694934.1180   1  25   0.0079   0.0092   0.0064  -0.0073   0.0062  -0.0062   0.00    4.5    3.35445    9.62362   -5.15858   0.01126  0.01417  0.01017 -0.00524  0.00364 -0.00563   -1.15570   -1.65471  237.63755   0.02157  0.02258  0.14437 -0.00167 -0.01318  0.03120
2032 273490.000  -3963147.9427   3351142.9033   3694929.0761   1  24   0.0079   0.0093   0.0064  -0.0073   0.0062  -0.0061   0.00    5.0    3.22993    9.26143   -5.01557   0.01122  0.01416  0.01013 -0.00527  0.00369 -0.00559   -0.99093   -1.53872  237.44779   0.02171  0.02266  0.14571 -0.00113 -0.01180  0.03219
2032 273491.000  -3963144.7608   3351152.1126   3694924.0548   1  24   0.0079   0.0093   0.0064  -0.0073   0.0062  -0.0061   0.00    5.3    3.15557    9.10937   -5.01598   0.01116  0.01411  0.01008 -0.00529  0.00367 -0.00560   -1.15922   -1.60061  237.14883   0.02186  0.02272  0.14715 -0.00016 -0.01054  0.03313
2032 273492.000  -3963141.6176   3351161.1661   3694919.0774   1  21   0.0103   0.0128   0.0076  -0.0103   0.0084  -0.0080   0.00   13.9    3.14016    8.96499   -4.91853   0.01116  0.01412  0.01004 -0.00536  0.00367 -0.00561   -1.23980   -1.69200  237.38386   0.02199  0.02276  0.14872  0.00093 -0.00945  0.03393
2032 273493.000  -3963138.3951   3351170.2222   3694914.1554   1  21   0.0102   0.0123   0.0076  -0.0101   0.0082  -0.0079   0.00   14.5    3.28349    9.13240   -4.96369   0.01115  0.01403  0.01002 -0.00536  0.00355 -0.00560   -1.21376   -1.73643  237.87524   0.02206  0.02278  0.15035  0.00135 -0.00841  0.03433
2032 273494.000  -3963135.0011   3351179.5479   3694909.0962   1  22   0.0102   0.0121   0.0076  -0.0100   0.0082  -0.0079   0.00   15.3    3.46644    9.45833   -5.18936   0.01121  0.01392  0.01007 -0.00532  0.00346 -0.00546   -1.41722   -1.78524  237.95019   0.02199  0.02279  0.15157  0.00149 -0.00816  0.03384
2032 273495.000  -3963131.4686   3351189.2725   3694903.7806   1  22   0.0097   0.0117   0.0074  -0.0095   0.0079  -0.0076   0.00   16.3    3.61743    9.85990   -5.43280   0.01128  0.01382  0.01015 -0.00523  0.00345 -0.00526   -1.20220   -2.04998  237.86780   0.02181  0.02280  0.15170  0.00133 -0.00922  0.03231
2032 273496.000  -3963127.7858   3351199.3963   3694898.2875   1  22   0.0094   0.0115   0.0073  -0.0092   0.0077  -0.0074   0.00   17.1    3.75867   10.22730   -5.61747   0.01131  0.01373  0.01018 -0.00515  0.00345 -0.00515   -1.49159   -1.83074  237.97582   0.02157  0.02280  0.15083  0.00103 -0.01083  0.02998
2032 273497.000  -3963124.0024   3351209.7783   3694892.6442   1  22   0.0108   0.0139   0.0089  -0.0111   0.0100  -0.0089   0.00   23.1    3.89804   10.21928   -5.77915   0.01117  0.01369  0.01004 -0.00520  0.00363 -0.00534   -2.24954   -1.98660  238.04030   0.02139  0.02280  0.15013  0.00083 -0.01235  0.02757
2032 273498.000  -3963120.1096   3351220.0875   3694886.8858   1  21   0.0104   0.0136   0.0088  -0.0108   0.0098  -0.0087   0.00   26.7    3.91539   10.31023   -5.79085   0.01107  0.01366  0.00994 -0.00519  0.00363 -0.00541   -1.92397   -2.02480  237.98683   0.02130  0.02282  0.15027  0.00064 -0.01368  0.02561
2032 273499.000  -3963116.3127   3351230.5347   3694881.2219   1  24   0.0098   0.0131   0.0086  -0.0101   0.0094  -0.0083   0.00   11.7    3.86821   10.39926   -5.78392   0.01096  0.01363  0.00986 -0.00515  0.00365 -0.00547   -1.60703   -0.66116  237.70669   0.02125  0.02283  0.15117  0.00022 -0.01466  0.02423
2032 273500.000  -3963112.5354   3351241.0149   3694875.3621   1  23   0.0094   0.0121   0.0079  -0.0094   0.0085  -0.0077   0.00   12.0    3.92641   10.49551   -5.96689   0.01089  0.01356  0.00980 -0.00514  0.00367 -0.00546   -1.90691   -2.34384  237.63216   0.02125  0.02284  0.15241 -0.00061 -0.01566  0.02314
2032 273501.000  -3963108.7173   3351251.6050   3694869.5505   1  22   0.0113   0.0129   0.0085  -0.0109   0.0093  -0.0090   0.00   13.2    3.89941   10.46179   -5.92104   0.01084  0.01353  0.00973 -0.00520  0.00370 -0.00550   -1.62976   -1.72168  237.69238   0.02127  0.02286  0.15389 -0.00086 -0.01647  0.02237
2032 273502.000  -3963104.9432   3351262.1372   3694863.7629   1  18   0.0139   0.0137   0.0089  -0.0117   0.0096  -0.0097   0.00    8.3    3.89856   10.49225   -5.94481   0.01088  0.01351  0.00970 -0.00520  0.00372 -0.00546   -1.64358   -2.03087  237.66370   0.02133  0.02289  0.15564 -0.00094 -0.01698  0.02219
2032 273503.000  -3963101.1542   3351272.7833   3694857.9228   1  18   0.0139   0.0136   0.0093  -0.0117   0.0097  -0.0098   0.00    8.1    3.82654   10.63358   -5.95485   0.01085  0.01347  0.00969 -0.00517  0.00371 -0.00543   -1.63207   -2.20659  237.49798   0.02139  0.02292  0.15743 -0.00118 -0.01752  0.02210
2032 273504.000  -3963097.3899   3351283.4832   3694851.9502   1  17   0.0125   0.0155   0.0102  -0.0125   0.0114  -0.0098   0.00   20.2    3.79088   10.68994   -5.99113   0.01079  0.01346  0.00967 -0.00520  0.00382 -0.00539   -1.18085   -3.06362  237.17594   0.02146  0.02295  0.15922 -0.00134 -0.01823  0.02218
2032 273505.000  -3963093.6356   3351294.2372   3694846.0312   1  20   0.0127   0.0153   0.0109  -0.0125   0.0115  -0.0101   0.00   25.1    3.81560   10.74773   -6.00635   0.01077  0.01341  0.00967 -0.00520  0.00381 -0.00538   -1.18982   -2.14913  237.26309   0.02154  0.02298  0.16108 -0.00158 -0.01864  0.02249
2032 273506.000  -3963089.7186   3351305.1663   3694840.0157   1  15   0.0195   0.0237   0.0134  -0.0197   0.0158  -0.0138   0.00   12.9    4.04289   11.03131   -6.12964   0.01098  0.01353  0.00974 -0.00541  0.00385 -0.00532   -1.29302   -1.56611  237.77267   0.02165  0.02304  0.16296 -0.00152 -0.01893  0.02239
2032 273507.000  -3963085.6526   3351316.4425   3694833.8765   1  19   0.0203   0.0263   0.0146  -0.0215   0.0179  -0.0153   0.00   12.7    4.15519   11.32915   -6.22825   0.01095  0.01356  0.00975 -0.00546  0.00394 -0.00536   -1.24519   -2.58789  238.10069   0.02168  0.02308  0.16459 -0.00153 -0.01930  0.02152
2032 273508.000  -3963081.5495   3351327.9629   3694827.7470   1  18   0.0193   0.0248   0.0140  -0.0204   0.0171  -0.0148   0.00   12.8    4.15873   11.54816   -6.21224   0.01089  0.01347  0.00971 -0.00539  0.00391 -0.00535   -0.72832   -2.11208  238.11268   0.02170  0.02311  0.16618 -0.00140 -0.01970  0.02054
2032 273509.000  -3963077.4875   3351339.5842   3694821.5415   1  18   0.0185   0.0238   0.0135  -0.0196   0.0165  -0.0142   0.00   12.9    4.03680   11.51102   -6.20498   0.01080  0.01342  0.00964 -0.00536  0.00398 -0.00536   -0.77334   -2.40801  237.83008   0.02173  0.02314  0.16797 -0.00130 -0.02000  0.01992
2032 273510.000  -3963073.5420   3351351.0752   3694815.3992   1  19   0.0126   0.0145   0.0100  -0.0121   0.0105  -0.0102   0.00    3.9    3.92495   11.33864   -6.11150   0.01064  0.01322  0.00955 -0.00512  0.00380 -0.00529   -0.68645   -2.55351  237.72910   0.02179  0.02316  0.16990 -0.00155 -0.02003  0.02047
2032 273511.000  -3963069.6145   3351362.3804   3694809.3747   1  21   0.0113   0.0136   0.0095  -0.0110   0.0099  -0.0095   0.00    6.6    3.91344   11.20695   -6.01269   0.01060  0.01319  0.00953 -0.00509  0.00387 -0.00523   -0.65003   -2.18044  237.88413   0.02189  0.02319  0.17153 -0.00172 -0.01952  0.02186
2032 273512.000  -3963065.7022   3351373.6744   3694803.3820   1  21   0.0100   0.0120   0.0088  -0.0096   0.0090  -0.0085   0.00   12.5    3.91614   11.22108   -6.06715   0.01052  0.01312  0.00949 -0.00508  0.00388 -0.00522   -0.85509   -1.69009  237.70550   0.02200  0.02321  0.17308 -0.00180 -0.01878  0.02328
2032 273513.000  -3963061.8236   3351384.9517   3694797.2802   1  19   0.0098   0.0131   0.0105  -0.0096   0.0103  -0.0086   0.00   13.4    3.86102   11.25867   -6.11206   0.01048  0.01311  0.00955 -0.00504  0.00395 -0.00516   -0.79543   -2.23252  237.54352   0.02214  0.02327  0.17479 -0.00175 -0.01830  0.02444
2032 273514.000  -3963057.9385   3351396.2593   3694791.2116   1  19   0.0095   0.0130   0.0103  -0.0094   0.0101  -0.0083   0.00   14.2    3.85976   11.30029   -6.03290   0.01046  0.01310  0.00952 -0.00502  0.00396 -0.00515   -0.49867   -2.24280  237.73646   0.02226  0.02331  0.17659 -0.00177 -0.01785  0.02549
2032 273515.000  -3963054.0502   3351407.5543   3694785.2320   1  20   0.0089   0.0127   0.0101  -0.0089   0.0098  -0.0078   0.00   16.3    3.85105   11.26496   -5.92394   0.01044  0.01308  0.00950 -0.00500  0.00398 -0.00512   -0.42465   -2.03827  237.93819   0.02237  0.02336  0.17841 -0.00171 -0.01714  0.02644
2032 273516.000  -3963050.0898   3351418.8904   3694779.2836   1  20   0.0085   0.0121   0.0095  -0.0085   0.0092  -0.0074   0.00   13.6    3.97215   11.38820   -5.95196   0.01039  0.01303  0.00947 -0.00500  0.00392 -0.00515   -0.42322   -1.59482  238.25533   0.02248  0.02340  0.18030 -0.00157 -0.01629  0.02711
2032 273517.000  -3963046.0775   3351430.3421   3694773.3290   1  21   0.0089   0.0119   0.0094  -0.0084   0.0090  -0.0074   0.00   13.9    4.01207   11.41352   -5.90086   0.01038  0.01300  0.00945 -0.00499  0.00392 -0.00513   -0.52535   -1.99544  238.55808   0.02256  0.02345  0.18227 -0.00128 -0.01552  0.02731
2032 273518.000  -3963042.0241   3351441.6735   3694767.4473   1  18   0.0092   0.0119   0.0095  -0.0086   0.0091  -0.0076   0.00   14.7    3.96392   11.25010   -5.83649   0.01036  0.01299  0.00944 -0.00499  0.00399 -0.00510   -0.64459   -1.61563  238.43261   0.02265  0.02351  0.18422 -0.00091 -0.01448  0.02767
2032 273519.000  -3963038.1981   3351452.8183   3694761.5796   1  15   0.0092   0.0119   0.0099  -0.0086   0.0093  -0.0077   0.00   15.1    3.75102   11.10080   -5.84355   0.01034  0.01297  0.00947 -0.00501  0.00402 -0.00503   -0.42515   -2.35881  237.84218   0.02278  0.02357  0.18606 -0.00052 -0.01350  0.02864
2032 273520.000  -3963034.3772   3351463.8984   3694755.6953   1  15   0.0091   0.0116   0.0098  -0.0085   0.0090  -0.0076   0.00   15.0    3.80238   11.13575   -5.84511   0.01031  0.01293  0.00943 -0.00501  0.00399 -0.00506   -0.41956   -2.16932  237.97576   0.02291  0.02363  0.18796  0.00028 -0.01285  0.02959
2032 273521.000  -3963030.7638   3351474.9884   3694750.2022   1   5   0.0593   0.0269   0.0308  -0.0343   0.0236  -0.0301   0.00    4.4    3.82014   11.01927   -5.69858   0.01318  0.01323  0.01077 -0.00503  0.00386 -0.00513   -0.62155   -2.09753  238.45145   0.02346  0.02399  0.19002  0.00252 -0.01256  0.02994
2032 273521.994  -3963026.8781   3351485.9182   3694744.5457   3   0   0.0877   0.1008   0.0739  -0.0766   0.0671  -0.0662   0.00    0.0    3.87328   10.82513   -5.45207   0.01547  0.01809  0.01385 -0.00703  0.00667 -0.00693   -0.57596   -2.00349  239.27036   0.02411  0.02464  0.19211  0.00244 -0.01252  0.03030
2032 273522.994  -3963022.9797   3351496.6480   3694739.2277   3   0   0.0993   0.1139   0.0843  -0.0829   0.0733  -0.0722   0.00    0.0    3.92759   10.63252   -5.18515   0.01723  0.01997  0.01552 -0.00617  0.00608 -0.00630   -0.55870   -2.31632  240.20271   0.02477  0.02529  0.19420  0.00237 -0.01250  0.03066
2032 273524.000  -3963019.0447   3351507.1809   3694734.0942   2   7   0.1127   0.1288   0.0966  -0.0890   0.0793  -0.0781   0.00    0.0    3.90732   10.44413   -5.11478   0.01902  0.02190  0.01734 -0.00499  0.00518 -0.00522   -0.79083   -1.98284  240.24394   0.02542  0.02592  0.19629  0.00229 -0.01242  0.03103
2032 273525.000  -3963015.0628   3351517.6558   3694728.8373   2   7   0.1142   0.1309   0.0987  -0.0915   0.0822  -0.0802   0.00    0.0    3.89808   10.54377   -5.23703   0.01902  0.02195  0.01751 -0.00545  0.00550 -0.00548   -0.74421   -1.85479  239.85943   0.02555  0.02598  0.19814  0.00260 -0.01013  0.03170
2032 273526.000  -3963011.1063   3351528.2740   3694723.5005   2   7   0.1140   0.1308   0.0988  -0.0918   0.0826  -0.0804   0.00    0.0    3.82676   10.72977   -5.25865   0.01896  0.02188  0.01753 -0.00554  0.00557 -0.00550   -0.14023   -1.25260  239.62837   0.02563  0.02603  0.20016  0.00282 -0.00793  0.03213
2032 273527.000  -3963007.1858   3351539.0527   3694718.1145   2   9   0.1136   0.1305   0.0986  -0.0918   0.0828  -0.0803   0.00    0.0    3.87032   10.80658   -5.35700   0.01890  0.02178  0.01750 -0.00559  0.00568 -0.00548   -0.58687   -1.72384  239.47995   0.02569  0.02607  0.20225  0.00298 -0.00609  0.03237
2032 273528.000  -3963003.2838   3351549.7932   3694712.5609   2   9   0.1132   0.1300   0.0982  -0.0918   0.0828  -0.0801   0.00    0.0    3.72897   10.75515   -5.51621   0.01883  0.02171  0.01745 -0.00557  0.00583 -0.00551   -0.51418   -1.39438  238.56897   0.02574  0.02611  0.20436  0.00308 -0.00503  0.03250
2032 273529.000  -3962999.5535   3351560.5119   3694706.8876   2  16   0.1127   0.1292   0.0975  -0.0916   0.0824  -0.0798   0.00    1.4    3.61336   10.76341   -5.65733   0.01876  0.02160  0.01736 -0.00560  0.00585 -0.00552   -0.57664   -1.94510  237.93056   0.02580  0.02615  0.20647  0.00308 -0.00556  0.03269
2032 273530.000  -3962995.9111   3351571.2631   3694701.2577   2  15   0.1120   0.1280   0.0965  -0.0912   0.0815  -0.0791   0.00    1.3    3.55111   10.71949   -5.52262   0.01865  0.02144  0.01724 -0.00578  0.00575 -0.00552   -0.19105   -3.09249  238.22388   0.02585  0.02618  0.20857  0.00304 -0.00659  0.03290
2032 273531.000  -3962992.2672   3351581.8257   3694695.6891   2  20   0.1113   0.1270   0.0954  -0.0909   0.0809  -0.0786   0.00    1.2    3.57053   10.45593   -5.46418   0.01852  0.02129  0.01705 -0.00605  0.00569 -0.00561   -0.67287   -4.53137  238.24365   0.02590  0.02621  0.21070  0.00300 -0.00775  0.03336
2032 273532.000  -3962988.6395   3351592.1629   3694690.2157   2  22   0.1105   0.1261   0.0942  -0.0906   0.0803  -0.0780   0.00    1.1    3.51828   10.23063   -5.37673   0.01839  0.02117  0.01686 -0.00625  0.00567 -0.00565   -0.96932   -4.55813  238.21025   0.02597  0.02625  0.21284  0.00296 -0.00858  0.03402
2032 273533.000  -3962985.1055   3351602.1731   3694684.9203   2  22   0.1097   0.1258   0.0935  -0.0906   0.0804  -0.0777   0.00    1.1    3.32016    9.65827   -5.06844   0.01827  0.02112  0.01678 -0.00649  0.00580 -0.00552   -1.11025   -3.91121  238.18649   0.02606  0.02629  0.21493  0.00297 -0.00862  0.03491
2032 273534.000  -3962981.4933   3351611.2667   3694679.7264   1  20   0.0130   0.0162   0.0104  -0.0135   0.0119  -0.0106   0.00    4.7    3.05335    8.77720   -4.54595   0.01093  0.01327  0.01039 -0.00507  0.00336 -0.00280   -1.22230   -4.30167  238.61286   0.02502  0.02519  0.21561  0.00241  0.00851  0.03739
2032 273535.000  -3962978.3640   3351619.7043   3694675.3817   1  23   0.0129   0.0159   0.0102  -0.0133   0.0117  -0.0105   0.00    5.3    3.05480    8.30584   -4.16485   0.01110  0.01332  0.01034 -0.00485  0.00372 -0.00244   -0.76261   -3.51437  239.57795   0.02527  0.02526  0.21583  0.00286  0.01198  0.03923
2032 273536.000  -3962975.1806   3351627.8689   3694671.4724   1  22   0.0117   0.0135   0.0088  -0.0115   0.0098  -0.0092   0.00   14.5    3.22966    7.95303   -3.73968   0.01118  0.01340  0.01012 -0.00442  0.00397 -0.00272   -0.97816   -2.66338  241.81326   0.02552  0.02534  0.21605  0.00344  0.01561  0.04081
2032 273537.000  -3962971.9122   3351635.5332   3694668.0389   1  20   0.0114   0.0127   0.0084  -0.0109   0.0089  -0.0086   0.00   14.4    3.16118    7.32400   -3.20944   0.01146  0.01352  0.01021 -0.00403  0.00427 -0.00178   -0.94533   -2.03399  243.65984   0.02576  0.02544  0.21591  0.00412  0.01924  0.04218
2032 273538.000  -3962968.8761   3351642.6237   3694664.8839   1  20   0.0122   0.0135   0.0086  -0.0113   0.0089  -0.0081   0.00    6.2    2.91367    6.84219   -3.01519   0.01136  0.01346  0.01028 -0.00442  0.00411 -0.00164   -0.92402   -1.90338  243.36917   0.02603  0.02554  0.21547  0.00479  0.02229  0.04363
2032 273539.000  -3962966.1458   3351649.1822   3694661.8472   1  20   0.0114   0.0128   0.0084  -0.0107   0.0087  -0.0081   0.00    6.3    2.51965    6.22705   -2.90313   0.01122  0.01339  0.01048 -0.00487  0.00384 -0.00107   -0.92782   -1.95279  241.95251   0.02633  0.02564  0.21509  0.00538  0.02454  0.04520
2032 273540.000  -3962963.8341   3351655.0917   3694658.9452   1  20   0.0103   0.0109   0.0074  -0.0092   0.0072  -0.0072   0.00    5.3    2.05584    5.42300   -2.70833   0.01125  0.01339  0.01083 -0.00520  0.00352  0.00194   -1.27820   -1.90511  240.13633   0.02667  0.02573  0.21445  0.00590  0.02616  0.04689
2032 273541.000  -3962962.0398   3351659.9701   3694656.4221   1  22   0.0102   0.0109   0.0074  -0.0092   0.0072  -0.0073   0.00    5.5    1.49389    4.19723   -2.19340   0.01176  0.01347  0.01160 -0.00543  0.00358  0.00437   -1.42137   -1.83705  238.79342   0.02709  0.02583  0.21224  0.00644  0.02752  0.04865
2032 273542.000  -3962960.7442   3351663.6135   3694654.5037   1  21   0.0101   0.0108   0.0074  -0.0091   0.0073  -0.0073   0.00    5.5    1.05087    3.05422   -1.63480   0.01206  0.01352  0.01195 -0.00546  0.00390  0.00525   -1.30083   -1.56579  238.08713   0.02758  0.02595  0.20773  0.00709  0.02896  0.05025
2032 273543.000  -3962959.8250   3351666.2256   3694653.1002   1  23   0.0098   0.0106   0.0073  -0.0089   0.0073  -0.0074   0.00    4.9    0.66041    2.00404   -1.08827   0.01212  0.01356  0.01196 -0.00543  0.00421  0.00539   -1.31386   -1.63573  237.65664   0.02810  0.02608  0.20263  0.00778  0.03040  0.05162
2032 273544.000  -3962959.3075   3351667.7242   3694652.2876   1  24   0.0096   0.0103   0.0070  -0.0087   0.0070  -0.0072   0.00    5.0    0.26967    0.88078   -0.48793   0.01215  0.01360  0.01191 -0.00536  0.00451  0.00542   -1.41517   -1.70526  237.51774   0.02862  0.02623  0.19724  0.00850  0.03183  0.05275
2032 273545.000  -3962959.1269   3351668.2447   3694652.0036   1  24   0.0093   0.0101   0.0068  -0.0085   0.0068  -0.0069   0.00    5.0    0.03574    0.17606   -0.11533   0.01154  0.01358  0.01120 -0.00540  0.00445  0.00377   -1.14038   -1.71710  237.45108   0.02913  0.02639  0.19265  0.00923  0.03324  0.05378
2032 273546.000  -3962959.0364   3351668.5155   3694651.8635   1  24   0.0092   0.0100   0.0067  -0.0084   0.0068  -0.0068   0.00    5.3    0.03761    0.20357   -0.12605   0.01055  0.01344  0.01010 -0.00543  0.00404 -0.00291   -0.98992   -1.67799  237.41071   0.02959  0.02655  0.19149  0.00984  0.03456  0.05495
2032 273547.000  -3962958.9582   3351668.7419   3694651.7370   1  24   0.0091   0.0099   0.0066  -0.0083   0.0067  -0.0067   0.00    5.2    0.02328    0.15692   -0.10022   0.01023  0.01333  0.00972 -0.00536  0.00384 -0.00397   -0.99851   -1.63422  237.40015   0.02991  0.02667  0.19263  0.01024  0.03559  0.05597
2032 273548.000  -3962958.8954   3351668.9213   3694651.6379   1  24   0.0090   0.0098   0.0065  -0.0082   0.0065  -0.0065   0.00    5.3   -0.00500    0.05238   -0.04412   0.01027  0.01322  0.00973 -0.00525  0.00373 -0.00396   -1.11637   -1.67441  237.38824   0.03007  0.02675  0.19442  0.01041  0.03617  0.05653
2032 273549.000  -3962958.8897   3351668.9247   3694651.6302   1  25   0.0089   0.0097   0.0064  -0.0081   0.0065  -0.0064   0.00    5.5   -0.01890   -0.01389   -0.00995   0.01049  0.01311  0.00994 -0.00510  0.00370 -0.00341   -1.03474   -1.65551  237.37290   0.03007  0.02679  0.19600  0.01039  0.03633  0.05658
2032 273550.000  -3962958.8890   3351668.9238   3694651.6288   1  25   0.0087   0.0097   0.0064  -0.0080   0.0065  -0.0064   0.00    5.5   -0.00482    0.00067   -0.01704   0.01086  0.01301  0.01028 -0.00491  0.00372 -0.00215   -1.03311   -1.63890  237.38620   0.02989  0.02680  0.19671  0.01012  0.03590  0.05590
2032 273551.000  -3962958.8453   3351669.0578   3694651.5602   1  24   0.0090   0.0098   0.0067  -0.0081   0.0066  -0.0067   0.00    5.4    0.11175    0.31883   -0.18687   0.01160  0.01288  0.01097 -0.00453  0.00389  0.00316   -0.86985   -1.61923  237.36370   0.02951  0.02676  0.19583  0.00956  0.03472  0.05426
2032 273552.000  -3962958.6674   3351669.5788   3694651.2786   1  24   0.0090   0.0097   0.0067  -0.0081   0.0066  -0.0067   0.00    5.4    0.27620    0.75387   -0.42654   0.01238  0.01276  0.01169 -0.00406  0.00413  0.00515   -0.77983   -1.59460  237.29760   0.02890  0.02667  0.19237  0.00866  0.03254  0.05130
2032 273553.000  -3962958.2065   3351670.9160   3694650.5620   1  25   0.0089   0.0097   0.0067  -0.0081   0.0066  -0.0067   0.00    5.3    0.71552    1.96410   -1.07481   0.01417  0.01260  0.01334 -0.00269  0.00477  0.00825   -0.47787   -1.70133  237.49600   0.02806  0.02654  0.18456  0.00732  0.02887  0.04639
2032 273554.000  -3962957.3358   3351673.4171   3694649.2340   1  25   0.0087   0.0096   0.0065  -0.0079   0.0065  -0.0065   0.00    5.2    1.15973    3.15672   -1.69402   0.01516  0.01245  0.01426 -0.00142  0.00510  0.00961   -0.37467   -1.91127  237.93824   0.02714  0.02641  0.17198  0.00566  0.02365  0.03945
2032 273555.000  -3962956.0300   3351677.0718   3694647.2969   1  25   0.0086   0.0096   0.0065  -0.0079   0.0065  -0.0064   0.00    5.1    1.50268    4.04576   -2.16089   0.01490  0.01231  0.01398 -0.00171  0.00496  0.00910   -0.70523   -1.81729  238.04772   0.02641  0.02633  0.15811  0.00415  0.01768  0.03170
2032 273556.000  -3962954.4749   3351681.3961   3694645.0051   1  25   0.0086   0.0096   0.0065  -0.0079   0.0065  -0.0064   0.00    5.3    1.76304    4.74585   -2.52903   0.01428  0.01221  0.01335 -0.00231  0.00472  0.00800   -0.55532   -1.71536  238.02463   0.02601  0.02633  0.14742  0.00328  0.01159  0.02452
2032 273557.000  -3962952.6507   3351686.5472   3694642.2913   1  25   0.0085   0.0096   0.0065  -0.0079   0.0065  -0.0064   0.00    5.5    2.02272    5.55974   -2.94621   0.01382  0.01213  0.01284 -0.00256  0.00459  0.00706   -0.36276   -1.33609  237.81326   0.02582  0.02637  0.13893  0.00308 -0.00083  0.01710
2032 273558.000  -3962950.6694   3351692.2637   3694639.2895   1  25   0.0092   0.0105   0.0067  -0.0087   0.0070  -0.0068   0.00    4.7    2.07878    5.84851   -3.08797   0.01277  0.01210  0.01181 -0.00329  0.00423  0.00488   -0.24727   -1.12215  237.49601   0.02578  0.02643  0.13316  0.00339 -0.01015  0.00799
2032 273559.000  -3962948.7323   3351698.0756   3694636.2230   1  23   0.0096   0.0106   0.0068  -0.0089   0.0071  -0.0071   0.00    7.0    2.00429    5.81097   -3.06862   0.01175  0.01209  0.01084 -0.00386  0.00385  0.00141    0.02077   -1.27207  237.08093   0.02583  0.02651  0.13042  0.00386 -0.01340 -0.00975
2032 273560.000  -3962946.8418   3351703.8545   3694633.1781   1  22   0.0096   0.0105   0.0071  -0.0089   0.0072  -0.0073   0.00    7.3    1.98549    5.89704   -3.11245   0.01120  0.01208  0.01033 -0.00413  0.00367 -0.00290    0.32585   -1.11191  236.72627   0.02591  0.02660  0.12967  0.00429 -0.01544 -0.01439
2032 273561.000  -3962944.9430   3351709.7937   3694630.0434   1  21   0.0098   0.0105   0.0075  -0.0088   0.0071  -0.0076   0.00    7.0    1.95109    5.86791   -3.10292   0.01076  0.01208  0.00996 -0.00437  0.00349 -0.00395    0.15181   -0.82951  236.40170   0.02600  0.02669  0.12985  0.00464 -0.01694 -0.01709
2032 273562.000  -3962943.1915   3351715.4738   3694627.0770   1  16   0.0118   0.0142   0.0104  -0.0115   0.0105  -0.0102   0.00    5.5    1.78943    5.51062   -2.88045   0.01039  0.01215  0.00973 -0.00465  0.00343 -0.00451    0.27215   -0.70237  236.25984   0.02608  0.02678  0.13088  0.00485 -0.01780 -0.01847
2032 273563.000  -3962941.6944   3351720.6992   3694624.5336   2   9   0.0927   0.1062   0.0786  -0.0812   0.0677  -0.0672   0.00    1.5    1.73113    5.13306   -2.63882   0.01593  0.01828  0.01496 -0.00747  0.00466 -0.00574    0.02854   -0.52903  236.86176   0.02708  0.02750  0.13271  0.00481 -0.01966 -0.01979
2032 273564.001  -3962939.9097   3351725.6866   3694622.0515   3   2   0.1053   0.1203   0.0904  -0.0881   0.0726  -0.0725   0.00    0.0    1.86424    4.85631   -2.26607   0.01779  0.02025  0.01682 -0.00685  0.00322 -0.00436    0.26247   -0.51759  239.94106   0.02768  0.02809  0.13401  0.00480 -0.01978 -0.02022
2032 273565.000  -3962937.8536   3351730.3885   3694620.0881   2   7   0.1197   0.1362   0.1042  -0.0947   0.0766  -0.0772   0.00    0.0    2.28808    4.55508   -1.59651   0.01995  0.02242  0.01873 -0.00547 -0.00218  0.00147   -0.17856   -1.12885  247.84900   0.02829  0.02868  0.13531  0.00477 -0.01985 -0.02063
2032 273566.000  -3962935.2515   3351734.7985   3694619.1449   2  11   0.1323   0.1414   0.1074  -0.1042   0.0727  -0.0753   0.00    0.0    3.02203    4.12916   -0.47279   0.02181  0.02306  0.01932 -0.00660 -0.00490  0.00547   -0.65100   -1.80582  262.46413   0.02866  0.02877  0.13602  0.00480 -0.01832 -0.02061
2032 273567.000  -3962931.8860   3351738.5080   3694619.2894   2   9   0.1449   0.1415   0.1078  -0.1085   0.0748  -0.0824   0.00    0.0    3.51303    3.51707    0.52059   0.02355  0.02326  0.01926 -0.00493 -0.00478  0.00503   -0.90744   -2.16630  276.13270   0.02863  0.02886  0.13621  0.00501 -0.01618 -0.01973
2032 273568.000  -3962928.1940   3351741.6377   3694620.2433   2   4   0.1655   0.1500   0.1231  -0.1157   0.0694  -0.0861   0.00    0.0    3.86895    2.85309    1.43122   0.02666  0.02492  0.02165  0.00095 -0.00821  0.00819   -0.96345   -2.53677  289.10130   0.02916  0.02918  0.13683  0.00449 -0.01454 -0.01969
2032 273569.002  -3962924.2509   3351744.0972   3694622.1148   3   2   0.1897   0.1705   0.1424  -0.1235   0.0680  -0.0886   0.00    0.0    4.01318    2.05600    2.32186   0.03043  0.02832  0.02465  0.00786 -0.01044  0.01190   -1.27495   -2.44148  302.81279   0.02969  0.02970  0.13815  0.00447 -0.01442 -0.02011
2032 273570.002  -3962920.2170   3351745.7113   3694624.8395   3   2   0.2174   0.1945   0.1647  -0.1300   0.0634  -0.0883   0.00    0.0    3.90338    1.20298    3.01178   0.03457  0.03214  0.02822  0.01175 -0.01300  0.01587   -1.00201   -1.93388  315.03274   0.03017  0.03017  0.13947  0.00444 -0.01423 -0.02049
2032 273571.000  -3962916.8097   3351746.5838   3694627.6752   2   8   0.2209   0.2201   0.1766  -0.1325   0.0634  -0.1152   0.00    0.0    3.19191    0.64275    2.75224   0.03416  0.03552  0.02931  0.01364 -0.01532  0.01349   -0.80699   -1.31794  319.98078   0.02928  0.03039  0.13864  0.00357 -0.01225 -0.01493
2032 273572.000  -3962913.8663   3351747.2143   3694630.1690   2   9   0.2170   0.2198   0.1740  -0.1356   0.0743  -0.1157   0.00    0.0    2.54221    0.28791    2.40939   0.03357  0.03564  0.02943  0.01298 -0.01515  0.01371   -0.86844   -1.27066  324.10775   0.02848  0.02951  0.13810  0.00365 -0.00746 -0.00775
2032 273573.000  -3962911.8841   3351747.5635   3694632.0368   2  20   0.2084   0.2151   0.1668  -0.1362   0.0843  -0.1163   0.00    0.0    1.35522    0.01048    1.40012   0.03222  0.03550  0.02890  0.01235 -0.01460  0.01305   -0.99626   -1.20685  325.59539   0.02733  0.02838  0.13771  0.00367  0.00418  0.01090
2032 273574.000  -3962910.9537   3351747.6443   3694632.8556   2  17   0.2022   0.2119   0.1616  -0.1358   0.0904  -0.1152   0.00    0.0    0.44251   -0.14931    0.55313   0.03147  0.03570  0.02856  0.01265 -0.01417  0.01271   -0.85856   -1.19555  325.86516   0.02634  0.02734  0.13795  0.00377  0.00471  0.01579
