% program   : GINav v0.1.0
% obs start : 2018/12/19 03:56:15.0
% obs end   : 2018/12/19 04:16:56.0
% mode      : PPK/INS TC
% system    : GPS GLONASS GALILEO BDS QZSS
% nfreqs    : 1
% elev mask : 15.0 deg
% ephemeris : broadcast
% ionos opt : broadcast model
% trops opt : Saastamoinen model
%
%  GPST              x-ecef(m)      y-ecef(m)      z-ecef(m)   Q  ns   sdx(m)   sdy(m)   sdz(m)  sdxy(m)  sdyz(m)  sdzx(m) age(s)  ratio    vx(m/s)    vy(m/s)    vz(m/s)      sdvx     sdvy     sdvz    sdvxy    sdvyz    sdvzx pitch(deg)  roll(deg)   yaw(deg)       sdp      sdr      sdy     sdpr     sdry     sdyp
2032 273386.000  -3963423.6394   3350882.3296   3694868.8855   3   0  27.8149  26.8883  29.8900 -12.2578   1.1026  -1.1991   0.00    0.0    1.43216    0.01301    1.58108  10.00000 10.00000 10.00000  0.00000 -0.00000  0.00000    0.00000    0.00000  334.01334   0.30000  0.30000  0.50000  0.00000  0.00000  0.00000
2032 273387.000  -3963421.8119   3350882.3023   3694870.9479   1  20   0.0083   0.0098   0.0077  -0.0074   0.0058  -0.0067   0.00    7.5    1.82064   -0.30265    2.27180   9.38979  9.35127  9.48483 -1.46410  0.13262 -0.14331    0.17190    0.36414  335.99509   0.30004  0.30004  0.50003  0.00000 -0.00025 -0.00308
2032 273388.000  -3963419.6354   3350882.3157   3694873.3298   1  20   0.0083   0.0098   0.0077  -0.0074   0.0058  -0.0067   0.00    6.7    2.43234   -0.13879    2.56162   0.35715  0.44640  0.33171 -0.30206  0.24435 -0.29010    0.19796    0.51128  336.00829   0.30011  0.30011  0.50007 -0.00004  0.00109 -0.00434
2032 273389.000  -3963417.2437   3350882.4472   3694875.9531   1  20   0.0083   0.0098   0.0077  -0.0074   0.0058  -0.0067   0.00    8.5    2.61161   -0.15041    2.78715   0.20611  0.25653  0.19168 -0.17162  0.13784 -0.16356    0.36167    0.56965  335.02350   0.29428  0.29583  0.50005 -0.03890  0.02129  0.01653
2032 273390.000  -3963414.7859   3350882.5962   3694878.5480   1  19   0.0087   0.0106   0.0078  -0.0081   0.0062  -0.0070   0.00    8.7    2.56279   -0.19167    2.74228   0.14804  0.18359  0.13882 -0.11676  0.09174 -0.11061    0.44611    0.75300  333.86041   0.27447  0.28085  0.49996 -0.07651  0.04004  0.03391
2032 273391.000  -3963412.3192   3350882.7910   3694881.0740   1  19   0.0087   0.0106   0.0078  -0.0081   0.0062  -0.0070   0.00   11.0    2.52642   -0.19698    2.67412   0.11811  0.14834  0.11229 -0.08566  0.06277 -0.08156    0.77599    0.73159  332.72192   0.24094  0.25371  0.49989 -0.10265  0.05359  0.04871
2032 273392.000  -3963409.6930   3350883.0841   3694883.7527   1  19   0.0087   0.0106   0.0078  -0.0081   0.0062  -0.0070   0.00   11.2    2.71623   -0.12030    2.82891   0.09901  0.12792  0.09566 -0.06525  0.04019 -0.06450    0.88265    0.62629  331.56224   0.20305  0.21979  0.49988 -0.10927  0.06291  0.05719
2032 273393.000  -3963406.7763   3350883.4752   3694886.6389   1  20   0.0087   0.0106   0.0078  -0.0081   0.0062  -0.0070   0.00   12.7    3.00747    0.02346    3.02501   0.08515  0.11347  0.08356 -0.05145  0.02093 -0.05401    0.91504    0.24573  330.37508   0.16866  0.18584  0.49992 -0.10178  0.07057  0.05809
2032 273394.000  -3963403.6735   3350883.9582   3694889.6568   1  20   0.0085   0.0102   0.0077  -0.0078   0.0060  -0.0069   0.00   14.8    3.16702    0.16948    3.08544   0.07442  0.10145  0.07413 -0.04195 -0.00854 -0.04701    0.89811   -0.18796  329.33111   0.14059  0.15613  0.50001 -0.08849  0.07519  0.05454
2032 273395.000  -3963400.5214   3350884.4446   3694892.7050   1  19   0.0087   0.0106   0.0078  -0.0081   0.0062  -0.0070   0.00   15.6    3.18707    0.22640    3.07194   0.06604  0.09130  0.06649 -0.03571 -0.01544 -0.04199    0.98931   -0.47271  328.95795   0.11915  0.13226  0.50013 -0.07478  0.07561  0.05091
2032 273396.000  -3963397.4283   3350884.9158   3694895.7091   1  19   0.0087   0.0106   0.0078  -0.0081   0.0062  -0.0070   0.00   16.9    3.05886    0.22484    2.94302   0.05948  0.08293  0.06029 -0.03192 -0.01565 -0.03829    0.99924   -0.58778  328.96901   0.10339  0.11400  0.50024 -0.06278  0.07257  0.04998
2032 273397.000  -3963394.5297   3350885.3572   3694898.5311   1  20   0.0087   0.0106   0.0078  -0.0081   0.0062  -0.0070   0.00   17.6    2.82234    0.19525    2.70188   0.05437  0.07606  0.05525 -0.02974 -0.01358 -0.03558    1.10588   -0.66395  329.06521   0.09203  0.10035  0.50011 -0.05284  0.06574  0.05229
2032 273398.000  -3963391.8561   3350885.7706   3694901.1525   1  19   0.0091   0.0105   0.0081  -0.0080   0.0063  -0.0075   0.00   13.2    2.54054    0.17251    2.44361   0.05041  0.07032  0.05101 -0.02863 -0.00918 -0.03359    1.24803   -0.66578  329.08282   0.08379  0.09019  0.49956 -0.04462  0.05555  0.05636
2032 273399.000  -3963389.3825   3350886.1413   3694903.5478   1  21   0.0091   0.0104   0.0080  -0.0080   0.0064  -0.0075   0.00   13.9    2.31888    0.14140    2.21278   0.04737  0.06556  0.04751 -0.02814  0.00421 -0.03219    1.27548   -0.55214  329.10148   0.07798  0.08286  0.49856 -0.03814  0.04233  0.06054
2032 273400.000  -3963386.8387   3350886.5404   3694906.0225   1  20   0.0092   0.0104   0.0079  -0.0081   0.0065  -0.0074   0.00    9.4    2.40811    0.16694    2.31666   0.04496  0.06139  0.04445 -0.02833  0.01122 -0.03100    1.33922   -0.57507  329.16216   0.07383  0.07752  0.49782 -0.03286  0.02858  0.06302
2032 273401.000  -3963384.2973   3350886.9420   3694908.4785   1  20   0.0090   0.0106   0.0081  -0.0080   0.0061  -0.0073   0.00    9.3    2.34501    0.15435    2.24926   0.04301  0.05802  0.04198 -0.02845  0.01462 -0.03013    1.16444   -0.65888  329.24776   0.07091  0.07371  0.49749 -0.02863  0.01366  0.06390
2032 273402.000  -3963381.9358   3350887.2765   3694910.8034   1  20   0.0090   0.0105   0.0079  -0.0081   0.0064  -0.0072   0.00    9.3    2.20001    0.10316    2.16341   0.04137  0.05519  0.03991 -0.02860  0.01685 -0.02938    1.32579   -0.62465  329.81966   0.06889  0.07099  0.49712 -0.02527 -0.01985  0.06483
2032 273403.000  -3963379.5347   3350887.5587   3694913.2081   1  21   0.0089   0.0104   0.0078  -0.0081   0.0064  -0.0072   0.00    9.4    2.22596    0.03614    2.25505   0.03997  0.05271  0.03811 -0.02873  0.01841 -0.02868    1.21064   -0.58130  330.90329   0.06748  0.06905  0.49704 -0.02255 -0.02813  0.06553
2032 273404.000  -3963376.9006   3350887.8646   3694915.8077   1  22   0.0091   0.0101   0.0077  -0.0080   0.0064  -0.0072   0.00    6.1    2.51730    0.07210    2.51722   0.03874  0.05051  0.03657 -0.02865  0.01934 -0.02800    1.12217   -0.54685  330.73692   0.06649  0.06768  0.49730 -0.02027 -0.03014  0.06525
2032 273405.000  -3963373.7283   3350888.4405   3694918.7515   1  22   0.0085   0.0100   0.0073  -0.0078   0.0063  -0.0067   0.00    5.3    3.10656    0.27376    2.85983   0.03760  0.04866  0.03533 -0.02835  0.01952 -0.02732    0.53408   -0.34755  328.94993   0.06571  0.06668  0.49692 -0.01822 -0.02611  0.06214
2032 273406.000  -3963370.0643   3350889.1931   3694922.0000   1  22   0.0084   0.0099   0.0071  -0.0078   0.0063  -0.0066   0.00    6.1    3.66605    0.42033    3.25052   0.03650  0.04715  0.03427 -0.02780  0.01929 -0.02665    0.00583   -0.00576  326.86171   0.06510  0.06598  0.49425 -0.01644 -0.01344  0.05573
2032 273407.000  -3963365.9694   3350889.9639   3694925.6381   1  21   0.0087   0.0104   0.0072  -0.0082   0.0066  -0.0067   0.00    6.6    4.11536    0.36512    3.73099   0.03550  0.04586  0.03307 -0.02694  0.01921 -0.02598   -0.49040   -0.07732  325.45817   0.06467  0.06550  0.48945 -0.01502  0.02379  0.04749
2032 273408.000  -3963361.7012   3350890.6054   3694929.5135   1  21   0.0089   0.0104   0.0075  -0.0082   0.0067  -0.0070   0.00    7.4    4.23304    0.17298    4.00176   0.03452  0.04424  0.03179 -0.02616  0.01964 -0.02505   -0.93145   -0.03995  323.93165   0.06440  0.06519  0.48410 -0.01406  0.03832  0.04009
2032 273409.000  -3963357.4878   3350891.1390   3694933.3750   1  20   0.0087   0.0103   0.0075  -0.0082   0.0066  -0.0069   0.00   14.8    4.18532   -0.01774    4.04856   0.03346  0.04253  0.03074 -0.02556  0.01982 -0.02399   -1.31631    0.13510  323.30764   0.06424  0.06498  0.47980 -0.01347  0.04854  0.03588
2032 273410.000  -3963353.2766   3350891.6892   3694937.1998   1  19   0.0091   0.0104   0.0079  -0.0080   0.0065  -0.0074   0.00   20.0    4.13503   -0.06529    4.05357   0.03240  0.04102  0.02986 -0.02493  0.01947 -0.02304   -1.42190    0.01050  322.72291   0.06411  0.06483  0.47674 -0.01316  0.05603  0.03448
2032 273411.000  -3963349.0592   3350892.2376   3694940.9840   1  21   0.0092   0.0107   0.0084  -0.0079   0.0059  -0.0076   0.00    3.6    4.10176   -0.08399    4.03240   0.03140  0.03971  0.02907 -0.02422  0.01884 -0.02218   -1.36850    0.03419  322.25127   0.06399  0.06469  0.47480 -0.01305  0.06164  0.03488
2032 273412.000  -3963344.8675   3350892.7897   3694944.8081   1  23   0.0089   0.0105   0.0078  -0.0080   0.0062  -0.0072   0.00    3.6    4.10888   -0.11845    4.08958   0.03049  0.03857  0.02826 -0.02343  0.01813 -0.02135   -1.30104   -0.16825  322.48643   0.06385  0.06452  0.47356 -0.01299  0.06599  0.03652
2032 273413.000  -3963340.8394   3350893.4947   3694949.4881   2  24   0.1618   0.1938   0.1406  -0.1503   0.1212  -0.1289   0.00    2.5    4.31194   -0.06309    4.41071   0.03390  0.04345  0.03079 -0.02618  0.02113 -0.02428   -1.02484   -0.20358  322.64959   0.06366  0.06438  0.47244 -0.01295  0.07012  0.03791
2032 273414.000  -3963335.6352   3350893.9549   3694953.1955   1  23   0.0086   0.0103   0.0074  -0.0079   0.0065  -0.0070   0.00   12.5    4.71680    0.11727    4.53732   0.02878  0.03657  0.02656 -0.02176  0.01638 -0.01993   -1.08954   -0.34735  321.24010   0.06342  0.06425  0.47183 -0.01304  0.07383  0.03658
2032 273415.000  -3963330.4679   3350894.8573   3694957.6097   1  23   0.0086   0.0102   0.0073  -0.0079   0.0066  -0.0070   0.00   13.2    5.07249    0.41554    4.60263   0.02796  0.03554  0.02590 -0.02100  0.01543 -0.01917   -1.22398   -0.32893  319.04610   0.06314  0.06405  0.47132 -0.01341  0.07605  0.03088
2032 273416.000  -3963325.0406   3350895.8246   3694962.1697   1  23   0.0084   0.0101   0.0071  -0.0080   0.0067  -0.0068   0.00   10.0    5.33787    0.54317    4.72665   0.02719  0.03459  0.02517 -0.02020  0.01467 -0.01845   -1.52414   -0.61774  318.42259   0.06282  0.06374  0.47000 -0.01391  0.07678  0.01988
2032 273417.000  -3963319.5841   3350896.7404   3694966.8300   1  23   0.0084   0.0101   0.0071  -0.0079   0.0067  -0.0068   0.00   10.0    5.39496    0.51354    4.78330   0.02639  0.03365  0.02437 -0.01938  0.01412 -0.01782   -1.63325   -0.88833  318.73073   0.06250  0.06340  0.46921 -0.01428  0.07709 -0.00866
2032 273418.000  -3963314.0233   3350897.5466   3694971.6523   1  23   0.0084   0.0101   0.0070  -0.0079   0.0068  -0.0068   0.00   10.4    5.51970    0.45798    4.97071   0.02560  0.03280  0.02362 -0.01863  0.01347 -0.01723   -1.55941   -1.05716  319.64191   0.06218  0.06309  0.46925 -0.01443  0.07752 -0.01944
2032 273419.000  -3963308.2782   3350898.2952   3694976.7032   1  23   0.0084   0.0100   0.0070  -0.0079   0.0068  -0.0068   0.00   11.5    5.69546    0.41999    5.17492   0.02485  0.03195  0.02292 -0.01792  0.01283 -0.01665   -1.54950   -1.08727  320.44730   0.06189  0.06287  0.46961 -0.01446  0.07839 -0.02455
2032 273420.000  -3963302.4236   3350899.0376   3694981.8870   1  24   0.0084   0.0101   0.0070  -0.0079   0.0067  -0.0068   0.00   16.9    5.78424    0.43193    5.26100   0.02414  0.03112  0.02227 -0.01722  0.01221 -0.01611   -1.59261   -1.08599  320.72907   0.06161  0.06269  0.47006 -0.01437  0.07911 -0.02753
2032 273421.000  -3963296.5067   3350899.7816   3694987.1075   1  24   0.0082   0.0100   0.0069  -0.0079   0.0067  -0.0066   0.00   17.2    5.81832    0.45579    5.29080   0.02348  0.03036  0.02166 -0.01649  0.01159 -0.01560   -1.56800   -1.19242  320.96091   0.06134  0.06251  0.47026 -0.01414  0.07900 -0.02911
2032 273422.000  -3963290.5964   3350900.5348   3694992.3775   1  22   0.0090   0.0102   0.0071  -0.0081   0.0068  -0.0071   0.00   14.9    5.83424    0.46128    5.27190   0.02288  0.02968  0.02108 -0.01575  0.01095 -0.01514   -1.50457   -1.46571  321.23901   0.06108  0.06230  0.46984 -0.01374  0.07793 -0.02931
2032 273423.000  -3963284.6162   3350901.2929   3694997.6530   1  23   0.0093   0.0102   0.0074  -0.0081   0.0068  -0.0074   0.00   15.1    5.91221    0.50286    5.26702   0.02232  0.02898  0.02051 -0.01504  0.01040 -0.01467   -1.41570   -1.45432  321.32443   0.06085  0.06207  0.46853 -0.01324  0.07595 -0.02905
2032 273424.000  -3963278.5283   3350902.1261   3695003.0067   1  20   0.0094   0.0103   0.0077  -0.0080   0.0067  -0.0076   0.00   15.1    5.99208    0.59060    5.29545   0.02182  0.02831  0.01997 -0.01435  0.00988 -0.01419   -1.37095   -1.52598  321.41118   0.06063  0.06182  0.46648 -0.01270  0.07331 -0.02970
2032 273425.000  -3963272.3653   3350902.9620   3695008.4008   1  19   0.0098   0.0102   0.0082  -0.0081   0.0067  -0.0081   0.00   14.6    6.05317    0.63067    5.30169   0.02132  0.02768  0.01948 -0.01369  0.00935 -0.01377   -1.38945   -1.51985  321.66192   0.06042  0.06155  0.46372 -0.01214  0.07010 -0.03099
2032 273426.000  -3963266.1729   3350903.7964   3695013.8311   1  18   0.0099   0.0102   0.0084  -0.0081   0.0068  -0.0082   0.00   11.6    6.07529    0.64711    5.30919   0.02083  0.02709  0.01902 -0.01308  0.00877 -0.01339   -1.42495   -1.54321  322.10925   0.06022  0.06129  0.46051 -0.01152  0.06640 -0.03228
2032 273427.000  -3963260.1548   3350904.6284   3695019.0807   1  18   0.0098   0.0102   0.0084  -0.0081   0.0068  -0.0082   0.00   12.2    5.73911    0.61371    5.00201   0.02046  0.02717  0.01880 -0.01192  0.00735 -0.01327   -1.68898   -1.51167  322.33055   0.06001  0.06099  0.45575 -0.01071  0.06129 -0.03230
2032 273428.000  -3963254.8179   3350905.4118   3695023.7189   1  15   0.0104   0.0122   0.0096  -0.0070   0.0045  -0.0091   0.00    8.3    4.97566    0.55110    4.29867   0.02036  0.02847  0.01909 -0.00950  0.00097 -0.01368   -1.79299   -1.63087  322.17972   0.05976  0.06063  0.44321 -0.00963  0.05148 -0.02848
2032 273429.000  -3963250.8107   3350906.1659   3695027.9070   2  16   0.1291   0.1534   0.1106  -0.1186   0.0973  -0.1036   0.00    1.4    3.78970    0.37913    3.34793   0.02417  0.03510  0.02287 -0.01194  0.00331 -0.01773   -1.88276   -1.98171  322.59303   0.05947  0.06027  0.41522 -0.00836  0.03236 -0.01642
2032 273430.000  -3963247.7663   3350906.6422   3695030.6115   2  16   0.1276   0.1521   0.1095  -0.1174   0.0962  -0.1025   0.00    1.3    2.53653    0.18339    2.27452   0.02386  0.03588  0.02332 -0.01061 -0.00654 -0.01790   -1.59561   -2.02092  323.62240   0.05916  0.06011  0.37217 -0.00764 -0.02461  0.02045
2032 273431.000  -3963245.2410   3350906.9625   3695032.8503   2  18   0.1261   0.1507   0.1083  -0.1162   0.0953  -0.1014   0.00    1.2    1.55030    0.05470    1.44733   0.02346  0.03533  0.02301 -0.01051 -0.00619 -0.01759   -1.38757   -1.89203  324.37279   0.05886  0.06019  0.32961 -0.00788 -0.04285  0.03044
2032 273432.000  -3963242.7312   3350907.4174   3695035.1761   1  18   0.0112   0.0132   0.0114  -0.0070   0.0038  -0.0104   0.00    3.1    0.83680    0.00761    0.89075   0.01924  0.02996  0.01969 -0.00388 -0.01014 -0.01393   -1.46108   -1.52505  324.52220   0.05853  0.06042  0.29435 -0.00862 -0.05183  0.03486
2032 273433.000  -3963240.1926   3350907.7101   3695037.4373   2  19   0.1236   0.1483   0.1064  -0.1140   0.0936  -0.0994   0.00    2.6    0.35259    0.00623    0.54705   0.02261  0.03314  0.02178 -0.01137  0.00415 -0.01659   -1.92800   -0.69317  324.28949   0.05816  0.06073  0.26741 -0.00952 -0.05730  0.03690
2032 273434.000  -3963237.7567   3350907.9927   3695038.8692   1  20   0.0089   0.0118   0.0081  -0.0085   0.0069  -0.0075   0.00    5.9    0.12223    0.06944    0.30862   0.01823  0.02691  0.01812 -0.00713 -0.00545 -0.01254   -2.60154   -0.12727  323.75508   0.05777  0.06108  0.24894 -0.01041 -0.06119  0.03803
2032 273435.000  -3963236.6478   3350908.2119   3695039.8293   1  20   0.0089   0.0115   0.0080  -0.0085   0.0070  -0.0075   0.00    3.8   -0.34260    0.04631   -0.06787   0.01771  0.02551  0.01749 -0.00818 -0.00183 -0.01191   -2.45684    0.06909  323.08294   0.05739  0.06144  0.23674 -0.01136 -0.06424  0.03900
2032 273436.000  -3963236.1353   3350908.3352   3695040.3029   1  19   0.0095   0.0115   0.0082  -0.0090   0.0075  -0.0079   0.00   10.4   -0.72508    0.00420   -0.36965   0.01721  0.02416  0.01686 -0.00893  0.00420 -0.01129   -2.13003    0.60249  322.71081   0.05706  0.06181  0.22936 -0.01239 -0.06688  0.04018
2032 273437.000  -3963235.5395   3350908.4832   3695040.8289   1  19   0.0095   0.0114   0.0081  -0.0090   0.0076  -0.0079   0.00    9.5   -0.95045   -0.00384   -0.51060   0.01676  0.02308  0.01634 -0.00930  0.00550 -0.01075   -2.18165    1.12916  322.40990   0.05678  0.06216  0.22536 -0.01346 -0.06924  0.04152
2032 273438.000  -3963235.2571   3350908.5608   3695041.0940   1  19   0.0094   0.0111   0.0081  -0.0089   0.0076  -0.0078   0.00   10.5   -0.94964   -0.01000   -0.48936   0.01633  0.02208  0.01580 -0.00951  0.00620 -0.01019   -2.48907    1.46752  322.19578   0.05655  0.06246  0.22415 -0.01443 -0.07129  0.04289
2032 273439.000  -3963235.2560   3350908.5631   3695041.0976   1  21   0.0094   0.0111   0.0080  -0.0089   0.0076  -0.0078   0.00   11.4   -0.62731    0.04669   -0.21777   0.01595  0.02147  0.01536 -0.00928  0.00582 -0.00970   -2.68212    1.63345  322.19099   0.05638  0.06260  0.22465 -0.01513 -0.07266  0.04401
2032 273440.000  -3963235.2420   3350908.5561   3695041.1015   1  21   0.0092   0.0106   0.0078  -0.0085   0.0073  -0.0076   0.00   12.2   -0.10149    0.13236    0.18938   0.01574  0.02174  0.01532 -0.00825  0.00271 -0.00960   -2.78779    1.67016  322.16841   0.05624  0.06235  0.22428 -0.01518 -0.07218  0.04408
2032 273441.000  -3963235.2413   3350908.5719   3695041.1193   1  23   0.0091   0.0106   0.0079  -0.0084   0.0074  -0.0076   0.00    8.4    0.35190    0.21210    0.51851   0.01568  0.02249  0.01555 -0.00660 -0.00538 -0.00982   -2.76580    1.61375  321.97485   0.05609  0.06164  0.21978 -0.01447 -0.06894  0.04263
2032 273442.000  -3963235.2283   3350908.5638   3695041.1127   1  25   0.0088   0.0105   0.0082  -0.0082   0.0076  -0.0074   0.00    5.0    0.69766    0.28430    0.74311   0.01565  0.02305  0.01575 -0.00471 -0.00765 -0.01005   -2.63852    1.49903  321.63229   0.05596  0.06062  0.21065 -0.01317 -0.06314  0.03978
2032 273443.000  -3963235.2291   3350908.5672   3695041.1200   1  25   0.0084   0.0104   0.0079  -0.0080   0.0074  -0.0071   0.00    5.1    0.93916    0.34913    0.88021   0.01558  0.02314  0.01574 -0.00312 -0.00857 -0.01010   -2.42797    1.36854  321.23388   0.05586  0.05956  0.19872 -0.01158 -0.05582  0.03608
2032 273444.000  -3963235.2236   3350908.5744   3695041.1254   1  25   0.0081   0.0103   0.0077  -0.0077   0.0074  -0.0067   0.00    5.4    1.09398    0.40207    0.94726   0.01545  0.02281  0.01554 -0.00241 -0.00868 -0.00997   -2.16232    1.26029  320.87428   0.05580  0.05865  0.18640 -0.00999 -0.04810  0.03206
2032 273445.000  -3963235.2151   3350908.5652   3695041.1208   1  25   0.0079   0.0104   0.0083  -0.0077   0.0077  -0.0067   0.00   10.0    1.17277    0.43661    0.96559   0.01528  0.02222  0.01522 -0.00275 -0.00829 -0.00972   -1.85177    1.18364  320.59590   0.05579  0.05797  0.17527 -0.00859 -0.04068  0.02806
2032 273446.000  -3963235.2227   3350908.5644   3695041.1225   1  24   0.0079   0.0098   0.0069  -0.0075   0.0066  -0.0065   0.00    3.2    1.18758    0.45815    0.94785   0.01510  0.02150  0.01483 -0.00348 -0.00762 -0.00940   -1.51222    1.13769  320.38423   0.05581  0.05747  0.16604 -0.00745 -0.03379  0.02416
2032 273447.000  -3963235.5208   3350908.6969   3695041.4919   2  26   0.1075   0.1289   0.0919  -0.0991   0.0823  -0.0857   0.00    2.7    1.12331    0.47604    0.93808   0.01851  0.02531  0.01715 -0.00964  0.00466 -0.01244   -1.15703    1.12256  320.22748   0.05588  0.05711  0.15897 -0.00664 -0.02736  0.02032
2032 273448.000  -3963235.5189   3350908.6967   3695041.4836   2  25   0.1065   0.1277   0.0909  -0.0981   0.0815  -0.0848   0.00    2.7    1.05527    0.47054    0.87012   0.01830  0.02466  0.01678 -0.00986  0.00569 -0.01213   -0.80193    1.13523  320.14302   0.05596  0.05685  0.15364 -0.00612 -0.02124  0.01647
2032 273449.000  -3963235.5226   3350908.6964   3695041.4789   2  25   0.1054   0.1264   0.0900  -0.0971   0.0808  -0.0839   0.00    2.7    0.96126    0.45624    0.78602   0.01809  0.02405  0.01643 -0.01005  0.00648 -0.01184   -0.46500    1.16395  320.09935   0.05605  0.05665  0.14994 -0.00590 -0.01492  0.01233
2032 273450.000  -3963235.5153   3350908.6849   3695041.4630   2  25   0.1044   0.1254   0.0891  -0.0963   0.0802  -0.0830   0.00    2.9    0.85414    0.43199    0.69250   0.01790  0.02352  0.01613 -0.01020  0.00710 -0.01158   -0.14536    1.19695  320.09289   0.05615  0.05648  0.14760 -0.00591 -0.00669  0.00724
2032 273451.000  -3963235.5180   3350908.6863   3695041.4558   2  26   0.1033   0.1243   0.0882  -0.0953   0.0796  -0.0821   0.00    3.0    0.73722    0.40356    0.59548   0.01770  0.02305  0.01586 -0.01030  0.00757 -0.01134    0.14475    1.23763  320.10333   0.05625  0.05634  0.14638 -0.00608  0.00976 -0.00550
2032 273452.000  -3963235.2251   3350908.5669   3695041.1118   1  25   0.0078   0.0098   0.0067  -0.0075   0.0066  -0.0062   0.00    3.5    0.65063    0.36196    0.46511   0.01407  0.01793  0.01291 -0.00629  0.00026 -0.00768    0.40514    1.27490  320.10868   0.05634  0.05621  0.14591 -0.00636  0.01430 -0.00982
2032 273453.000  -3963235.2261   3350908.5612   3695041.1029   1  25   0.0078   0.0098   0.0068  -0.0074   0.0067  -0.0062   0.00    5.2    0.53520    0.32750    0.37014   0.01392  0.01758  0.01273 -0.00644  0.00219 -0.00751    0.63295    1.30257  320.14353   0.05642  0.05609  0.14624 -0.00670  0.01707 -0.01217
2032 273454.000  -3963235.2319   3350908.5570   3695041.1035   1  25   0.0078   0.0098   0.0068  -0.0074   0.0067  -0.0062   0.00    5.2    0.42813    0.29023    0.28131   0.01379  0.01730  0.01259 -0.00653  0.00287 -0.00737    0.83397    1.31942  320.16329   0.05649  0.05598  0.14704 -0.00706  0.01893 -0.01363
2032 273455.000  -3963235.2363   3350908.5679   3695041.1085   1  25   0.0078   0.0099   0.0068  -0.0075   0.0068  -0.0063   0.00    4.7    0.33181    0.25513    0.19774   0.01365  0.01708  0.01248 -0.00658  0.00325 -0.00726    1.00283    1.32826  320.17666   0.05654  0.05587  0.14818 -0.00741  0.02016 -0.01446
2032 273456.000  -3963235.2345   3350908.5607   3695041.0971   1  26   0.0078   0.0099   0.0070  -0.0075   0.0069  -0.0063   0.00    4.2    0.24469    0.21790    0.11984   0.01353  0.01689  0.01239 -0.00658  0.00346 -0.00718    1.13127    1.32958  320.18334   0.05658  0.05576  0.14953 -0.00774  0.02090 -0.01481
2032 273457.000  -3963235.2389   3350908.5662   3695041.1038   1  25   0.0077   0.0097   0.0066  -0.0074   0.0065  -0.0062   0.00    4.2    0.16898    0.18439    0.05297   0.01341  0.01675  0.01231 -0.00656  0.00357 -0.00711    1.22409    1.33485  320.16417   0.05661  0.05566  0.15096 -0.00803  0.02124 -0.01473
2032 273458.000  -3963235.2398   3350908.5694   3695041.1059   1  25   0.0077   0.0097   0.0066  -0.0074   0.0065  -0.0062   0.00    3.4    0.10518    0.15227   -0.00269   0.01329  0.01662  0.01223 -0.00651  0.00362 -0.00705    1.29933    1.34769  320.12044   0.05663  0.05556  0.15242 -0.00830  0.02122 -0.01428
2032 273459.000  -3963235.2164   3350908.5750   3695041.1296   1  26   0.0077   0.0097   0.0066  -0.0074   0.0065  -0.0062   0.00    3.4    0.09841    0.13493   -0.00811   0.01319  0.01652  0.01217 -0.00646  0.00365 -0.00701    1.39545    1.36804  320.04716   0.05663  0.05546  0.15388 -0.00854  0.02091 -0.01351
2032 273460.000  -3963234.9172   3350908.6436   3695041.3821   1  25   0.0078   0.0097   0.0066  -0.0074   0.0065  -0.0062   0.00    3.3    0.47262    0.22867    0.30091   0.01319  0.01642  0.01209 -0.00656  0.00385 -0.00704    1.71649    1.50526  319.77318   0.05663  0.05535  0.15543 -0.00882  0.02058 -0.01279
2032 273461.000  -3963233.7717   3350908.9728   3695042.3501   1  24   0.0082   0.0099   0.0067  -0.0078   0.0067  -0.0065   0.00    7.3    1.28216    0.50418    0.97612   0.01331  0.01648  0.01210 -0.00680  0.00391 -0.00722    1.96630    1.95454  318.75345   0.05661  0.05522  0.15697 -0.00928  0.02095 -0.01324
2032 273462.000  -3963232.0092   3350909.7098   3695043.6329   1  24   0.0082   0.0099   0.0067  -0.0077   0.0067  -0.0065   0.00    7.3    1.73895    0.82084    1.21470   0.01334  0.01646  0.01208 -0.00698  0.00396 -0.00725    2.02082    2.22332  317.48634   0.05659  0.05503  0.15821 -0.00991  0.02178 -0.01492
2032 273463.000  -3963230.3347   3350910.7054   3695044.6770   1  24   0.0083   0.0099   0.0067  -0.0078   0.0067  -0.0065   0.00    8.1    1.71730    1.04351    1.00730   0.01326  0.01632  0.01194 -0.00698  0.00412 -0.00711    2.35911    2.28229  316.09504   0.05658  0.05480  0.15953 -0.01048  0.02194 -0.01660
2032 273464.000  -3963228.5558   3350912.4016   3695045.9080   2  24   0.0916   0.1109   0.0777  -0.0845   0.0710  -0.0722   0.00    2.6    1.93642    1.56801    0.85638   0.01628  0.02048  0.01423 -0.01018  0.00827 -0.01000    2.66890    1.80746  314.81977   0.05657  0.05452  0.16085 -0.01094  0.02111 -0.01802
2032 273465.000  -3963226.0317   3350915.0780   3695046.3097   2  23   0.0913   0.1107   0.0774  -0.0845   0.0712  -0.0721   0.00    1.4    2.62927    2.80412    0.52889   0.01662  0.02050  0.01446 -0.01039  0.00833 -0.00977    2.89041    1.38993  313.37975   0.05655  0.05411  0.16103 -0.01129  0.01829 -0.02023
2032 273466.000  -3963223.6048   3350919.1563   3695045.4589   2  23   0.0910   0.1105   0.0770  -0.0845   0.0711  -0.0718   0.00    2.1    3.19490    4.63725   -0.44034   0.01738  0.02055  0.01507 -0.01066  0.00847 -0.00911    3.05220    1.06259  309.80577   0.05652  0.05353  0.15689 -0.01127  0.00910 -0.02318
2032 273467.000  -3963221.5997   3350924.1057   3695043.3025   2  23   0.0905   0.1098   0.0764  -0.0840   0.0706  -0.0713   0.00    1.7    3.20207    6.08668   -1.60274   0.01778  0.02063  0.01520 -0.01077  0.00855 -0.00882    3.43979    0.67614  303.57525   0.05642  0.05278  0.14725 -0.01059 -0.01725 -0.02506
2032 273468.000  -3963219.5736   3350930.0017   3695040.4980   2  21   0.0902   0.1097   0.0761  -0.0839   0.0708  -0.0711   0.00    1.9    3.12343    6.89254   -2.21898   0.01766  0.02094  0.01468 -0.01091  0.00822 -0.00910    3.91659    0.17863  297.45948   0.05609  0.05188  0.13912 -0.00920 -0.02658 -0.02548
2032 273469.000  -3963216.9848   3350936.6101   3695036.9437   1  21   0.0111   0.0159   0.0094  -0.0120   0.0113  -0.0092   0.00    7.8    3.09844    7.48873   -2.62172   0.01501  0.01753  0.01190 -0.00814  0.00278 -0.00600    4.57801    0.08496  294.06862   0.05533  0.05064  0.13537 -0.00704 -0.03307 -0.02523
2032 273470.000  -3963214.4772   3350944.2029   3695033.0974   1  22   0.0111   0.0158   0.0094  -0.0120   0.0112  -0.0092   0.00    6.8    3.06057    8.20806   -3.10719   0.01507  0.01803  0.01156 -0.00792 -0.00096 -0.00578    5.14217    0.61243  291.35272   0.05403  0.04890  0.13464 -0.00315 -0.03750 -0.02493
2032 273471.000  -3963211.7445   3350952.6645   3695028.7275   1  22   0.0110   0.0154   0.0092  -0.0120   0.0109  -0.0092   0.00    7.5    2.96456    8.87720   -3.62539   0.01503  0.01837  0.01136 -0.00755 -0.00283 -0.00548    5.67047    0.90278  290.02868   0.05223  0.04671  0.13546  0.00547 -0.04005 -0.02473
2032 273472.000  -3963208.8425   3350961.6239   3695024.1310   1  22   0.0113   0.0154   0.0095  -0.0121   0.0111  -0.0095   0.00    7.3    2.70174    9.19872   -4.18658   0.01476  0.01844  0.01132 -0.00705 -0.00363 -0.00508    5.86362    0.79601  289.78118   0.05012  0.04426  0.13688  0.00767 -0.04043 -0.02417
2032 273473.000  -3963205.8833   3350970.7850   3695019.3334   1  22   0.0106   0.0154   0.0096  -0.0115   0.0112  -0.0090   0.00    6.5    2.56200    9.37932   -4.72491   0.01435  0.01831  0.01144 -0.00656 -0.00389 -0.00479    5.70881    0.74986  289.46220   0.04798  0.04184  0.13777  0.00843 -0.03868 -0.02244
2032 273474.000  -3963202.7003   3350980.4434   3695014.3220   1  22   0.0102   0.0146   0.0092  -0.0110   0.0106  -0.0087   0.00    6.2    2.64652    9.68542   -5.04768   0.01391  0.01799  0.01148 -0.00627 -0.00363 -0.00478    5.52468    0.42774  289.31343   0.04599  0.03976  0.13791  0.00871 -0.03584 -0.02004
2032 273475.000  -3963199.6165   3350990.6311   3695009.4347   2  22   0.0871   0.1068   0.0733  -0.0817   0.0695  -0.0687   0.00    2.7    2.69891    9.97698   -5.31370   0.01608  0.02123  0.01366 -0.00935  0.00625 -0.00830    5.25306    0.18976  288.94790   0.04431  0.03815  0.13761  0.00871 -0.03257 -0.01726
2032 273476.000  -3963196.0896   3351000.9767   3695004.0966   2  22   0.0866   0.1064   0.0729  -0.0814   0.0692  -0.0683   0.00    2.8    2.74613   10.16399   -5.61800   0.01570  0.02086  0.01365 -0.00921  0.00651 -0.00833    4.82337    0.19869  288.22777   0.04295  0.03700  0.13694  0.00860 -0.02925 -0.01382
2032 273477.000  -3963192.2362   3351011.2818   3694998.3455   1  25   0.0097   0.0137   0.0087  -0.0102   0.0098  -0.0083   0.00    5.0    2.75117   10.24175   -5.93696   0.01265  0.01677  0.01153 -0.00568 -0.00194 -0.00507    4.28055    0.02379  287.05209   0.04189  0.03623  0.13595  0.00843 -0.02591 -0.00862
2032 273478.000  -3963188.6504   3351021.7805   3694992.8626   1  25   0.0088   0.0124   0.0081  -0.0094   0.0088  -0.0076   0.00    5.6    2.75532   10.30320   -6.06175   0.01234  0.01639  0.01147 -0.00553 -0.00086 -0.00513    3.78692   -0.34870  285.61308   0.04106  0.03574  0.13478  0.00827 -0.02263  0.00671
2032 273479.000  -3963185.0817   3351032.4916   3694987.3067   1  27   0.0086   0.0121   0.0079  -0.0090   0.0086  -0.0073   0.00    8.7    2.92817   10.48183   -6.24100   0.01208  0.01606  0.01126 -0.00539  0.00179 -0.00529    3.08688   -0.47408  284.09043   0.04043  0.03548  0.13404  0.00817 -0.01981  0.01231
2032 273480.000  -3963181.5296   3351043.3990   3694981.6524   1  27   0.0081   0.0110   0.0072  -0.0083   0.0076  -0.0067   0.00   12.7    3.10467   10.66822   -6.39080   0.01189  0.01576  0.01105 -0.00527  0.00249 -0.00541    2.35132   -0.31208  282.87408   0.03994  0.03537  0.13412  0.00813 -0.01777  0.01540
2032 273481.000  -3963177.9970   3351054.0586   3694976.1066   1  27   0.0079   0.0105   0.0069  -0.0080   0.0072  -0.0065   0.00   14.0    3.13192   10.53400   -6.38479   0.01172  0.01550  0.01096 -0.00518  0.00287 -0.00536    1.84306    0.02849  281.78474   0.03956  0.03535  0.13452  0.00813 -0.01596  0.01752
2032 273482.000  -3963174.8657   3351064.6742   3694970.9702   2  26   0.0829   0.1021   0.0697  -0.0779   0.0664  -0.0654   0.00    2.5    3.05216   10.39188   -6.26028   0.01432  0.01906  0.01297 -0.00851  0.00743 -0.00833    1.50823    0.07165  280.49793   0.03927  0.03540  0.13500  0.00813 -0.01400  0.01916
2032 273483.000  -3963171.5389   3351074.7995   3694965.5965   2  26   0.0824   0.1014   0.0692  -0.0774   0.0660  -0.0649   0.00    2.6    2.96385   10.16570   -6.16901   0.01420  0.01887  0.01287 -0.00844  0.00747 -0.00828    1.16435    0.11076  279.12697   0.03902  0.03548  0.13549  0.00815 -0.01178  0.02057
2032 273484.000  -3963167.9649   3351084.4861   3694960.1370   1  26   0.0077   0.0092   0.0064  -0.0072   0.0062  -0.0061   0.00    3.2    2.97467    9.86379   -5.96714   0.01144  0.01495  0.01071 -0.00496  0.00355 -0.00528    0.84537    0.36887  278.08559   0.03882  0.03559  0.13594  0.00819 -0.00894  0.02174
2032 273485.000  -3963164.7380   3351094.0925   3694955.0864   1  26   0.0080   0.0093   0.0065  -0.0074   0.0063  -0.0062   0.00    3.2    3.04243    9.65073   -5.72437   0.01139  0.01485  0.01058 -0.00490  0.00373 -0.00534    0.62979    0.38398  277.28293   0.03865  0.03571  0.13649  0.00824 -0.00434  0.02257
2032 273486.000  -3963161.4674   3351103.6795   3694950.0274   1  26   0.0080   0.0093   0.0064  -0.0073   0.0063  -0.0062   0.00    3.5    3.24377    9.65681   -5.52863   0.01133  0.01478  0.01045 -0.00486  0.00373 -0.00549    0.52809    0.52332  276.63213   0.03850  0.03586  0.13734  0.00831  0.00589  0.02288
2032 273487.000  -3963158.0943   3351113.5112   3694944.8297   1  26   0.0079   0.0092   0.0064  -0.0073   0.0062  -0.0061   0.00    3.7    3.56099    9.89336   -5.40443   0.01127  0.01475  0.01039 -0.00488  0.00345 -0.00564    0.50330    0.86987  276.23862   0.03835  0.03601  0.13848  0.00837  0.00858  0.02236
2032 273488.000  -3963154.6564   3351123.5815   3694939.4432   1  26   0.0078   0.0092   0.0063  -0.0071   0.0062  -0.0060   0.00    4.3    3.75654   10.06350   -5.37656   0.01123  0.01470  0.01038 -0.00492  0.00321 -0.00570    0.36364    0.64904  275.92860   0.03820  0.03616  0.13948  0.00842  0.00997  0.02090
2032 273489.000  -3963151.1956   3351133.5232   3694934.1152   1  25   0.0079   0.0093   0.0064  -0.0073   0.0062  -0.0061   0.00    4.6    3.62470    9.81119   -5.35108   0.01122  0.01457  0.01028 -0.00493  0.00355 -0.00568    0.00601    0.66558  275.82866   0.03808  0.03633  0.14033  0.00849  0.01139  0.01913
2032 273490.000  -3963147.9396   3351142.9064   3694929.0680   1  24   0.0079   0.0093   0.0065  -0.0073   0.0062  -0.0061   0.00    6.3    3.35364    9.35761   -5.29142   0.01122  0.01443  0.01020 -0.00501  0.00392 -0.00560    0.07284    0.84075  275.62034   0.03800  0.03651  0.14136  0.00859  0.01337  0.01837
2032 273491.000  -3963144.7607   3351152.1134   3694924.0472   1  24   0.0079   0.0093   0.0065  -0.0073   0.0062  -0.0061   0.00    6.7    3.24720    9.13526   -5.24378   0.01118  0.01432  0.01015 -0.00513  0.00402 -0.00559    0.09668    0.81549  275.10540   0.03796  0.03671  0.14242  0.00873  0.01526  0.01830
2032 273492.000  -3963141.6185   3351161.1682   3694919.0698   1  21   0.0103   0.0129   0.0076  -0.0103   0.0084  -0.0080   0.00   14.0    3.16897    8.93080   -5.13692   0.01120  0.01430  0.01011 -0.00528  0.00409 -0.00559    0.10105    0.79103  274.79968   0.03793  0.03690  0.14360  0.00889  0.01690  0.01855
2032 273493.000  -3963138.3949   3351170.2180   3694914.1511   1  21   0.0103   0.0123   0.0076  -0.0101   0.0082  -0.0079   0.00   15.1    3.30728    8.89944   -4.98059   0.01118  0.01424  0.01006 -0.00532  0.00400 -0.00564    0.09968    0.76666  274.84176   0.03789  0.03709  0.14481  0.00909  0.01843  0.01883
2032 273494.000  -3963135.0018   3351179.5338   3694909.1066   1  22   0.0103   0.0122   0.0076  -0.0100   0.0081  -0.0079   0.00   10.6    3.55827    9.15390   -4.88825   0.01116  0.01421  0.01006 -0.00537  0.00370 -0.00569    0.04442    0.73141  274.65468   0.03785  0.03726  0.14609  0.00929  0.01989  0.01847
2032 273495.000  -3963131.4663   3351189.2612   3694903.7994   1  22   0.0097   0.0117   0.0074  -0.0095   0.0079  -0.0076   0.00   10.9    3.82654    9.56328   -4.93306   0.01112  0.01415  0.01012 -0.00543  0.00331 -0.00566   -0.30198    0.42979  273.97358   0.03778  0.03741  0.14712  0.00944  0.02121  0.01691
2032 273496.000  -3963127.7828   3351199.3936   3694898.3160   1  22   0.0097   0.0119   0.0076  -0.0096   0.0081  -0.0077   0.00   10.1    4.15862    9.99264   -5.08362   0.01111  0.01408  0.01021 -0.00551  0.00296 -0.00559   -0.87689    0.25884  273.06088   0.03771  0.03754  0.14757  0.00954  0.02238  0.01368
2032 273497.000  -3963123.9933   3351209.7862   3694892.6767   1  22   0.0108   0.0139   0.0090  -0.0112   0.0101  -0.0090   0.00   16.8    4.29343   10.28725   -5.28900   0.01111  0.01399  0.01019 -0.00556  0.00315 -0.00555   -1.14950    0.04911  271.97096   0.03765  0.03765  0.14755  0.00957  0.02336  0.00791
2032 273498.000  -3963120.1108   3351220.1110   3694886.9220   1  21   0.0105   0.0137   0.0089  -0.0109   0.0099  -0.0087   0.00   16.9    4.25221   10.43240   -5.38253   0.01107  0.01391  0.01007 -0.00553  0.00341 -0.00555   -0.84923   -0.04079  271.08624   0.03760  0.03774  0.14780  0.00956  0.02408 -0.00743
2032 273499.000  -3963116.3013   3351230.5417   3694881.2392   1  24   0.0096   0.0131   0.0085  -0.0101   0.0094  -0.0081   0.00   15.7    4.17465   10.50755   -5.51616   0.01101  0.01381  0.00993 -0.00549  0.00370 -0.00554   -0.58934    0.36059  270.06590   0.03756  0.03780  0.14868  0.00952  0.02462 -0.01212
2032 273500.000  -3963112.5220   3351241.0138   3694875.3766   1  23   0.0092   0.0121   0.0078  -0.0094   0.0085  -0.0076   0.00   18.3    4.22743   10.49707   -5.52370   0.01096  0.01375  0.00984 -0.00546  0.00378 -0.00556   -0.42058    0.71241  269.25181   0.03753  0.03785  0.15006  0.00948  0.02515 -0.01471
2032 273501.000  -3963108.6931   3351251.5881   3694869.5610   1  22   0.0105   0.0128   0.0080  -0.0105   0.0090  -0.0083   0.00   22.1    4.25944   10.40959   -5.56468   0.01094  0.01369  0.00976 -0.00548  0.00394 -0.00557   -0.63541    0.77242  268.73840   0.03752  0.03791  0.15168  0.00945  0.02582 -0.01627
2032 273502.000  -3963104.8869   3351262.1061   3694863.7680   1  18   0.0120   0.0135   0.0082  -0.0113   0.0093  -0.0085   0.00   20.0    4.23616   10.39595   -5.59266   0.01096  0.01366  0.00972 -0.00549  0.00402 -0.00549   -0.69190    0.69778  268.39369   0.03753  0.03798  0.15347  0.00947  0.02649 -0.01708
2032 273503.000  -3963101.1029   3351272.7564   3694857.9386   1  18   0.0120   0.0135   0.0087  -0.0113   0.0095  -0.0087   0.00   19.3    4.21728   10.51028   -5.59305   0.01094  0.01362  0.00971 -0.00547  0.00401 -0.00545   -0.37420    0.51439  267.96312   0.03753  0.03804  0.15531  0.00947  0.02708 -0.01762
2032 273504.000  -3963097.3539   3351283.4898   3694851.9903   1  17   0.0125   0.0155   0.0102  -0.0125   0.0114  -0.0098   0.00   19.2    4.12786   10.56532   -5.50613   0.01094  0.01365  0.00971 -0.00547  0.00412 -0.00541    0.24427    0.43544  267.46785   0.03751  0.03808  0.15719  0.00948  0.02763 -0.01791
2032 273505.000  -3963093.6124   3351294.2509   3694846.0896   1  20   0.0127   0.0153   0.0109  -0.0125   0.0115  -0.0101   0.00    9.4    4.07593   10.50952   -5.42435   0.01095  0.01361  0.00972 -0.00546  0.00412 -0.00536    0.58168    0.83104  267.28659   0.03747  0.03812  0.15898  0.00951  0.02836 -0.01753
2032 273506.000  -3963089.6453   3351305.2056   3694840.1835   1  15   0.0268   0.0696   0.0433  -0.0395   0.0535  -0.0307   0.00    4.2    4.29182   10.59485   -5.40785   0.01119  0.01574  0.01064 -0.00610  0.00700 -0.00564    0.41339    1.33053  267.47141   0.03748  0.03820  0.16068  0.00956  0.02921 -0.01698
2032 273507.000  -3963085.6038   3351316.4777   3694834.0411   1  19   0.0274   0.0704   0.0436  -0.0403   0.0540  -0.0314   0.00    4.0    4.48232   10.83810   -5.43375   0.01114  0.01576  0.01061 -0.00613  0.00701 -0.00573    0.20304    0.77651  267.65571   0.03747  0.03829  0.16240  0.00958  0.03018 -0.01674
2032 273508.000  -3963081.5186   3351328.0237   3694827.9108   1  18   0.0266   0.0697   0.0434  -0.0397   0.0537  -0.0311   0.00    4.0    4.51501   11.10147   -5.49625   0.01109  0.01566  0.01057 -0.00609  0.00695 -0.00572    0.29079   -0.36942  267.44643   0.03746  0.03836  0.16418  0.00962  0.03105 -0.01688
2032 273509.000  -3963077.4659   3351339.6630   3694821.6943   1  18   0.0260   0.0692   0.0431  -0.0393   0.0534  -0.0308   0.00    3.9    4.33149   11.28630   -5.76286   0.01102  0.01556  0.01053 -0.00608  0.00692 -0.00567    0.34559   -1.08746  266.96606   0.03744  0.03841  0.16611  0.00966  0.03153 -0.01712
2032 273510.000  -3963073.7881   3351351.2342   3694815.7423   2  19   0.0747   0.0917   0.0617  -0.0707   0.0604  -0.0584   0.00    1.1    4.03085   11.26724   -5.98283   0.01317  0.01682  0.01143 -0.00821  0.00718 -0.00771    0.30437   -1.52313  266.57622   0.03741  0.03842  0.16803  0.00977  0.03134 -0.01678
2032 273511.000  -3963069.8642   3351362.5404   3694809.6948   2  21   0.0742   0.0913   0.0614  -0.0703   0.0601  -0.0581   0.00    2.8    3.85254   11.17827   -6.10025   0.01310  0.01682  0.01144 -0.00816  0.00709 -0.00769    0.32563   -1.41435  266.37445   0.03737  0.03841  0.16958  0.00994  0.03051 -0.01551
2032 273512.000  -3963065.7016   3351373.6684   3694803.3718   1  21   0.0100   0.0120   0.0088  -0.0096   0.0090  -0.0085   0.00    5.0    3.79475   11.20852   -6.23264   0.01070  0.01342  0.00955 -0.00518  0.00354 -0.00533    0.54913   -1.04863  265.98094   0.03733  0.03837  0.17078  0.01012  0.02920 -0.01368
2032 273513.000  -3963061.8218   3351384.9322   3694797.2477   1  19   0.0098   0.0131   0.0105  -0.0096   0.0103  -0.0086   0.00    5.5    3.71651   11.22525   -6.38196   0.01068  0.01345  0.00962 -0.00501  0.00357 -0.00529    0.77216   -1.15888  265.42252   0.03732  0.03834  0.17176  0.01029  0.02739 -0.01192
2032 273514.000  -3963057.9369   3351396.2304   3694791.1657   1  19   0.0095   0.0130   0.0103  -0.0094   0.0101  -0.0083   0.00    6.3    3.65345   11.22420   -6.38523   0.01064  0.01343  0.00961 -0.00496  0.00357 -0.00526    0.97720   -1.26992  265.13540   0.03730  0.03830  0.17255  0.01043  0.02513 -0.00980
2032 273515.000  -3963054.0505   3351407.5187   3694785.1765   1  20   0.0089   0.0127   0.0101  -0.0089   0.0098  -0.0078   0.00    7.7    3.59239   11.16065   -6.32580   0.01058  0.01338  0.00961 -0.00498  0.00358 -0.00522    1.12384   -1.09617  264.92693   0.03729  0.03827  0.17334  0.01054  0.02264 -0.00667
2032 273516.000  -3963050.0982   3351418.8632   3694779.2339   1  20   0.0087   0.0124   0.0096  -0.0087   0.0094  -0.0075   0.00    8.6    3.66062   11.18227   -6.27135   0.01055  0.01328  0.00956 -0.00498  0.00369 -0.00518    1.42602   -0.62480  264.85405   0.03728  0.03826  0.17428  0.01062  0.02009  0.00323
2032 273517.000  -3963046.0962   3351430.3184   3694773.2868   1  21   0.0090   0.0122   0.0095  -0.0087   0.0092  -0.0075   0.00   11.2    3.69316   11.18536   -6.21018   0.01052  0.01320  0.00954 -0.00499  0.00375 -0.00514    1.56161   -0.60921  264.90004   0.03728  0.03825  0.17551  0.01068  0.01759  0.00759
2032 273518.000  -3963042.0402   3351441.6598   3694767.4122   1  18   0.0094   0.0127   0.0100  -0.0087   0.0097  -0.0077   0.00    7.9    3.62807   11.02943   -6.15515   0.01047  0.01318  0.00958 -0.00502  0.00378 -0.00509    1.50959   -0.32679  264.60114   0.03728  0.03826  0.17683  0.01073  0.01505  0.01085
2032 273519.000  -3963038.2191   3351452.8014   3694761.5388   1  15   0.0095   0.0127   0.0103  -0.0087   0.0099  -0.0078   0.00   10.9    3.41851   10.84980   -6.17622   0.01042  0.01319  0.00964 -0.00503  0.00372 -0.00502    1.69199   -0.57480  263.64923   0.03729  0.03827  0.17785  0.01076  0.01201  0.01429
2032 273520.000  -3963034.4003   3351463.8709   3694755.6516   1  15   0.0094   0.0119   0.0099  -0.0084   0.0093  -0.0076   0.00    9.5    3.41305   10.77110   -6.12990   0.01039  0.01311  0.00959 -0.00504  0.00382 -0.00500    1.74723   -0.54609  263.03985   0.03731  0.03829  0.17875  0.01076  0.00806  0.01742
2032 273521.000  -3963031.5235   3351475.2524   3694750.0652   2   5   0.0783   0.0903   0.0655  -0.0706   0.0613  -0.0603   0.00    2.3    3.25119   10.66140   -6.03711   0.01399  0.01654  0.01251 -0.00756  0.00692 -0.00716    1.71700   -0.46769  263.08785   0.03765  0.03849  0.18048  0.01103  0.00386  0.01851
2032 273521.994  -3963028.3527   3351485.7431   3694744.0806   3   0   0.0881   0.1012   0.0741  -0.0768   0.0673  -0.0661   0.00    0.0    3.09257   10.30597   -5.92098   0.01556  0.01819  0.01411 -0.00720  0.00659 -0.00669    1.66450   -0.39894  263.42544   0.03804  0.03895  0.18248  0.01100  0.00165  0.01907
2032 273522.994  -3963025.3445   3351495.8579   3694738.2399   3   0   0.0999   0.1143   0.0848  -0.0832   0.0734  -0.0721   0.00    0.0    2.92547    9.92122   -5.75777   0.01734  0.02004  0.01590 -0.00652  0.00601 -0.00574    1.67630   -0.51767  263.98200   0.03844  0.03942  0.18448  0.01098 -0.00308  0.01962
2032 273524.000  -3963022.5027   3351505.5920   3694732.5281   2   7   0.1137   0.1293   0.0974  -0.0893   0.0796  -0.0779   0.00    0.0    2.74203    9.56347   -5.70029   0.01926  0.02202  0.01783 -0.00533  0.00508 -0.00408    1.60904   -0.38239  264.02779   0.03886  0.03990  0.18648  0.01097 -0.00482  0.02021
2032 273525.000  -3963018.5238   3351515.9868   3694727.2110   2   7   0.1155   0.1315   0.0997  -0.0916   0.0825  -0.0801   0.00    0.0    2.84255    9.60341   -5.68052   0.01932  0.02213  0.01796 -0.00551  0.00547 -0.00450    1.46935   -0.15675  263.12624   0.03895  0.03995  0.18765  0.01098 -0.00497  0.02281
2032 273526.000  -3963014.5644   3351526.5932   3694721.8774   2   7   0.1157   0.1315   0.0999  -0.0918   0.0830  -0.0804   0.00    0.0    2.93220    9.80996   -5.62767   0.01928  0.02208  0.01792 -0.00542  0.00558 -0.00471    1.75066    0.40490  262.30574   0.03901  0.03998  0.18913  0.01099 -0.00500  0.02490
2032 273527.000  -3963010.6482   3351537.3662   3694716.5053   2   9   0.1156   0.1312   0.0998  -0.0917   0.0831  -0.0805   0.00    0.0    3.05542    9.95877   -5.56397   0.01925  0.02202  0.01788 -0.00531  0.00567 -0.00482    1.85789    0.66125  261.69560   0.03906  0.04000  0.19086  0.01101 -0.00461  0.02653
2032 273528.000  -3963006.7502   3351548.1046   3694710.9682   2   9   0.1156   0.1308   0.0995  -0.0915   0.0833  -0.0805   0.00    0.0    3.14306    9.96674   -5.65085   0.01921  0.02194  0.01784 -0.00524  0.00580 -0.00488    1.59025    1.04776  260.59198   0.03909  0.04002  0.19273  0.01103 -0.00349  0.02778
2032 273529.000  -3963003.0183   3351558.8241   3694705.3111   2  16   0.1154   0.1303   0.0991  -0.0913   0.0832  -0.0803   0.00    1.0    3.16039   10.02391   -5.73538   0.01918  0.02185  0.01778 -0.00520  0.00591 -0.00489    1.27625    0.82136  259.46346   0.03912  0.04004  0.19467  0.01105 -0.00231  0.02877
2032 273530.000  -3962999.3693   3351569.5678   3694699.6870   2  15   0.1151   0.1296   0.0984  -0.0908   0.0828  -0.0798   0.00    1.0    3.17003   10.07474   -5.62757   0.01914  0.02179  0.01772 -0.00514  0.00589 -0.00485    1.16402    0.18512  259.10113   0.03914  0.04006  0.19667  0.01107  0.00117  0.02950
2032 273531.000  -3962995.7228   3351580.1339   3694694.1415   2  20   0.1147   0.1290   0.0976  -0.0904   0.0827  -0.0794   0.00    1.0    3.25347    9.92749   -5.52145   0.01910  0.02173  0.01757 -0.00513  0.00596 -0.00489    0.74312   -1.18431  258.77120   0.03916  0.04009  0.19864  0.01109  0.00314  0.03012
2032 273532.000  -3962992.1027   3351590.4682   3694688.6945   2  22   0.1143   0.1285   0.0967  -0.0900   0.0825  -0.0789   0.00    1.1    3.29015    9.76613   -5.40744   0.01906  0.02168  0.01741 -0.00511  0.00603 -0.00489    0.48785   -1.78431  258.32035   0.03918  0.04013  0.20058  0.01110  0.00483  0.03069
2032 273533.000  -3962988.5440   3351600.4658   3694683.4002   2  22   0.1138   0.1284   0.0960  -0.0899   0.0827  -0.0784   0.00    1.1    3.15932    9.37747   -5.26040   0.01900  0.02166  0.01722 -0.00509  0.00634 -0.00488    0.34929   -1.78181  257.88536   0.03920  0.04018  0.20247  0.01111  0.00660  0.03127
2032 273534.000  -3962985.3208   3351609.6317   3694678.5956   2  20   0.1135   0.1280   0.0954  -0.0898   0.0827  -0.0781   0.00    1.3    2.76768    8.55112   -4.96233   0.01904  0.02164  0.01710 -0.00504  0.00677 -0.00459    0.07799   -1.81521  257.70426   0.03926  0.04024  0.20415  0.01113  0.00866  0.03240
2032 273535.000  -3962982.1886   3351618.0792   3694674.2710   2  23   0.1132   0.1272   0.0946  -0.0892   0.0824  -0.0777   0.00    1.0    2.64006    7.95313   -4.62133   0.01909  0.02159  0.01702 -0.00492  0.00693 -0.00432   -0.15857   -1.98075  257.91172   0.03935  0.04030  0.20526  0.01118  0.01093  0.03399
2032 273536.000  -3962978.9935   3351626.2560   3694670.3691   2  22   0.1126   0.1262   0.0939  -0.0885   0.0820  -0.0772   0.00    1.2    2.65954    7.68343   -4.21650   0.01908  0.02156  0.01691 -0.00475  0.00696 -0.00433    0.17019   -1.29340  259.03185   0.03945  0.04037  0.20628  0.01125  0.01331  0.03550
2032 273537.000  -3962975.7192   3351633.9330   3694666.9495   2  20   0.1122   0.1255   0.0932  -0.0880   0.0816  -0.0767   0.00    1.2    2.57745    7.14805   -3.74344   0.01914  0.02154  0.01685 -0.00456  0.00708 -0.00406    0.44897   -0.39135  260.35286   0.03955  0.04044  0.20723  0.01137  0.01594  0.03693
2032 273538.000  -3962972.6780   3351641.0253   3694663.8026   2  20   0.1119   0.1250   0.0927  -0.0877   0.0814  -0.0763   0.00    1.4    2.35295    6.63703   -3.49857   0.01912  0.02145  0.01681 -0.00473  0.00714 -0.00381    0.61563   -0.06743  260.05309   0.03968  0.04051  0.20796  0.01152  0.01828  0.03851
2032 273539.000  -3962969.9376   3351647.5877   3694660.7781   2  20   0.1116   0.1244   0.0922  -0.0872   0.0812  -0.0760   0.00    1.4    2.00719    6.09510   -3.41283   0.01903  0.02135  0.01680 -0.00499  0.00715 -0.00369    0.58311    0.02759  258.43265   0.03981  0.04057  0.20867  0.01167  0.01995  0.04020
2032 273540.000  -3962967.6225   3351653.5094   3694657.8905   2  20   0.1112   0.1238   0.0917  -0.0868   0.0810  -0.0757   0.00    1.1    1.53956    5.41858   -3.32077   0.01896  0.02129  0.01686 -0.00524  0.00710 -0.00344    0.43989    0.12904  256.04004   0.03996  0.04062  0.20927  0.01180  0.02093  0.04199
2032 273541.000  -3962965.8151   3351658.3924   3694655.3731   2  22   0.1108   0.1232   0.0910  -0.0863   0.0807  -0.0752   0.00    1.2    0.91421    4.30703   -3.02002   0.01901  0.02131  0.01714 -0.00559  0.00701 -0.00211    0.32477    0.16958  253.50655   0.04014  0.04064  0.20905  0.01191  0.02148  0.04396
2032 273542.000  -3962964.5123   3351662.0353   3694653.4670   2  21   0.1104   0.1227   0.0905  -0.0859   0.0805  -0.0749   0.00    1.1    0.35688    3.04121   -2.50946   0.01916  0.02132  0.01752 -0.00587  0.00702  0.00227    0.41143    0.47169  251.18376   0.04038  0.04066  0.20711  0.01206  0.02216  0.04604
2032 273543.000  -3962963.5995   3351664.6584   3694652.0794   2  23   0.1102   0.1220   0.0900  -0.0855   0.0802  -0.0746   0.00    1.4   -0.06713    1.88917   -1.93938   0.01926  0.02130  0.01771 -0.00588  0.00719  0.00328    0.44540    0.54103  249.06411   0.04065  0.04068  0.20394  0.01227  0.02332  0.04801
2032 273544.000  -3962963.0782   3351666.1651   3694651.2785   2  24   0.1098   0.1214   0.0893  -0.0850   0.0800  -0.0741   0.00    1.3   -0.45458    0.68904   -1.28861   0.01936  0.02127  0.01782 -0.00573  0.00751  0.00392    0.35861    0.53683  247.20730   0.04093  0.04070  0.20005  0.01257  0.02502  0.04975
2032 273545.000  -3962962.8928   3351666.6975   3694651.0183   2  24   0.1093   0.1207   0.0887  -0.0845   0.0796  -0.0737   0.00    1.2   -0.69479   -0.24135   -0.71523   0.01924  0.02122  0.01759 -0.00534  0.00782  0.00321    0.44172    0.55805  245.61965   0.04120  0.04071  0.19612  0.01295  0.02716  0.05126
2032 273546.000  -3962962.7874   3351666.9724   3694650.8919   2  24   0.1088   0.1201   0.0880  -0.0840   0.0793  -0.0731   0.00    1.0   -0.65250   -0.41965   -0.46341   0.01877  0.02112  0.01691 -0.00478  0.00788 -0.00270    0.58573    0.61067  244.52252   0.04142  0.04072  0.19418  0.01334  0.02937  0.05267
2032 273547.000  -3962962.7010   3351667.2048   3694650.7862   2  24   0.1084   0.1193   0.0872  -0.0835   0.0788  -0.0727   0.00    1.1   -0.56126   -0.42585   -0.31342   0.01850  0.02100  0.01650 -0.00433  0.00771 -0.00413    0.52921    0.67931  243.77745   0.04154  0.04072  0.19457  0.01361  0.03124  0.05388
2032 273548.000  -3962962.6341   3351667.4039   3694650.7105   2  24   0.1080   0.1185   0.0864  -0.0829   0.0782  -0.0721   0.00    1.1   -0.47506   -0.41970   -0.18770   0.01842  0.02089  0.01638 -0.00407  0.00743 -0.00430    0.40202    0.68050  243.21058   0.04152  0.04069  0.19610  0.01370  0.03252  0.05466
2032 273549.000  -3962962.6023   3351667.4140   3694650.7097   2  25   0.1074   0.1178   0.0858  -0.0825   0.0779  -0.0717   0.00    1.1   -0.40867   -0.46316   -0.06076   0.01843  0.02079  0.01644 -0.00400  0.00716 -0.00390    0.37701    0.70134  242.72718   0.04139  0.04063  0.19779  0.01362  0.03320  0.05492
2032 273550.000  -3962962.5886   3351667.4163   3694650.7273   2  25   0.1069   0.1172   0.0852  -0.0820   0.0776  -0.0712   0.00    1.1   -0.31517   -0.40452    0.01019   0.01856  0.02068  0.01662 -0.00401  0.00685 -0.00283    0.33543    0.71126  242.28137   0.04114  0.04055  0.19903  0.01334  0.03314  0.05453
2032 273551.000  -3962962.5226   3351667.5474   3694650.6655   2  24   0.1065   0.1167   0.0847  -0.0816   0.0773  -0.0709   0.00    1.0   -0.14653   -0.12078   -0.04032   0.01887  0.02054  0.01700 -0.00411  0.00651  0.00238    0.41370    0.70729  241.79005   0.04077  0.04044  0.19923  0.01284  0.03219  0.05334
2032 273552.000  -3962962.3110   3351668.0710   3694650.3935   2  24   0.1060   0.1161   0.0842  -0.0812   0.0771  -0.0705   0.00    1.0    0.08223    0.35459   -0.20455   0.01932  0.02038  0.01753 -0.00423  0.00622  0.00503    0.44887    0.68290  241.16254   0.04027  0.04031  0.19754  0.01211  0.03005  0.05110
2032 273553.000  -3962961.8225   3351669.4237   3694649.6932   2  25   0.1055   0.1154   0.0835  -0.0807   0.0766  -0.0701   0.00    1.2    0.44723    1.26607   -0.61146   0.02015  0.02018  0.01841 -0.00425  0.00600  0.00764    0.67232    0.54172  240.42425   0.03969  0.04018  0.19314  0.01117  0.02642  0.04759
2032 273554.000  -3962960.9204   3351671.9347   3694648.3808   2  25   0.1050   0.1149   0.0830  -0.0803   0.0763  -0.0698   0.00    1.3    0.92107    2.52839   -1.22161   0.02119  0.01998  0.01943 -0.00403  0.00606  0.00991    0.68032    0.24516  239.75650   0.03903  0.04005  0.18487  0.01009  0.02063  0.04245
2032 273555.000  -3962959.5919   3351675.6044   3694646.4588   2  25   0.1045   0.1143   0.0824  -0.0798   0.0760  -0.0693   0.00    1.2    1.35760    3.73102   -1.83554   0.02176  0.01982  0.01981 -0.00352  0.00641  0.01080    0.41335    0.14281  238.97304   0.03842  0.03997  0.17340  0.00915  0.01174  0.03599
2032 273556.000  -3962958.0043   3351679.9559   3694644.1820   2  25   0.1039   0.1135   0.0817  -0.0794   0.0755  -0.0689   0.00    1.1    1.66663    4.59779   -2.28853   0.02166  0.01968  0.01940 -0.00298  0.00675  0.01032    0.37028    0.17636  238.25154   0.03796  0.03994  0.16247  0.00859 -0.00990  0.02952
2032 273557.000  -3962956.1443   3351685.1318   3694641.4790   2  25   0.1033   0.1128   0.0810  -0.0789   0.0750  -0.0684   0.00    1.1    1.96153    5.51901   -2.76386   0.02151  0.01956  0.01897 -0.00240  0.00708  0.00973    0.51127    0.45481  237.47738   0.03766  0.03996  0.15307  0.00842 -0.01681  0.02324
2032 273558.000  -3962954.1289   3351690.8646   3694638.4908   2  25   0.1029   0.1123   0.0805  -0.0787   0.0747  -0.0681   0.00    1.1    2.09687    6.05635   -3.03237   0.02092  0.01949  0.01809 -0.00224  0.00723  0.00819    0.64839    0.66896  236.67997   0.03747  0.04001  0.14574  0.00854 -0.02065  0.01702
2032 273559.000  -3962952.1656   3351696.6940   3694635.4334   2  23   0.1024   0.1118   0.0800  -0.0784   0.0744  -0.0678   0.00    1.1    2.07027    6.16787   -3.08256   0.02012  0.01943  0.01706 -0.00247  0.00720  0.00596    0.92460    0.64857  235.85924   0.03737  0.04008  0.14126  0.00879 -0.02319  0.01069
2032 273560.000  -3962950.2496   3351702.4844   3694632.4043   2  22   0.1020   0.1112   0.0795  -0.0781   0.0740  -0.0675   0.00    1.0    2.02963    6.19992   -3.09333   0.01952  0.01937  0.01632 -0.00280  0.00713  0.00379    1.25006    0.73636  235.06542   0.03731  0.04015  0.13910  0.00906 -0.02503 -0.00257
2032 273561.000  -3962948.3144   3351708.4464   3694629.2856   2  21   0.1016   0.1106   0.0791  -0.0778   0.0736  -0.0673   0.00    1.1    2.00078    6.24490   -3.11590   0.01907  0.01931  0.01582 -0.00310  0.00702  0.00065    1.33464    0.89504  234.26590   0.03728  0.04023  0.13826  0.00929 -0.02648 -0.00975
2032 273562.000  -3962946.5331   3351714.1392   3694626.3212   2  16   0.1013   0.1108   0.0793  -0.0779   0.0740  -0.0674   0.00    1.7    1.87392    5.92925   -2.95602   0.01859  0.01931  0.01539 -0.00352  0.00694 -0.00351    1.25905    1.52505  233.60060   0.03727  0.04032  0.13854  0.00947 -0.02757 -0.01239
2032 273563.000  -3962944.8299   3351719.5048   3694623.4312   2   9   0.1023   0.1129   0.0836  -0.0797   0.0739  -0.0678   0.00    1.1    1.87128    5.57848   -2.72175   0.01840  0.01959  0.01600 -0.00458  0.00601 -0.00343    1.32235    1.98266  233.43198   0.03747  0.04040  0.13958  0.00957 -0.02823 -0.01316
2032 273564.001  -3962942.8793   3351724.9532   3694620.8709   3   2   0.1170   0.1282   0.0965  -0.0850   0.0801  -0.0722   0.00    0.0    2.05608    5.33474   -2.35818   0.02027  0.02162  0.01780 -0.00237  0.00508  0.00177    1.32223    2.05814  234.51041   0.03787  0.04083  0.14086  0.00949 -0.02830 -0.01341
2032 273565.000  -3962940.5986   3351730.2189   3694618.8016   2   7   0.1337   0.1451   0.1111  -0.0898   0.0854  -0.0757   0.00    0.0    2.52740    5.15765   -1.75811   0.02231  0.02375  0.01968  0.00380  0.00305  0.00490    0.95711    1.69688  235.79827   0.03830  0.04125  0.14214  0.00939 -0.02834 -0.01364
2032 273566.000  -3962938.0426   3351734.8374   3694617.7790   2  11   0.1464   0.1502   0.1139  -0.1015   0.0814  -0.0737   0.00    0.0    3.39652    5.00819   -0.81721   0.02363  0.02435  0.02022 -0.00338 -0.00425  0.00663    0.25265    1.02714  237.16518   0.03854  0.04137  0.14325  0.00955 -0.02778 -0.01419
2032 273567.000  -3962934.2109   3351738.4405   3694617.8384   2   9   0.1595   0.1503   0.1145  -0.1066   0.0832  -0.0815   0.00    0.0    4.42730    4.82521    0.20584   0.02494  0.02459  0.02018 -0.00078 -0.00497  0.00531   -0.45232    1.06639  238.68623   0.03863  0.04155  0.14406  0.00962 -0.02691 -0.01527
2032 273568.000  -3962929.3012   3351742.1123   3694618.0476   2   4   0.1815   0.1584   0.1300  -0.1146   0.0780  -0.0855   0.00    0.0    5.48623    4.81996    1.06810   0.02731  0.02614  0.02230  0.00339 -0.00910  0.00628   -0.80615    0.89240  240.19854   0.03910  0.04189  0.14498  0.00950 -0.02636 -0.01553
2032 273569.002  -3962923.2421   3351747.0175   3694619.5602   3   2   0.2066   0.1801   0.1500  -0.1212   0.0786  -0.0882   0.00    0.0    6.63916    5.00968    1.94794   0.03008  0.02929  0.02475  0.00770 -0.01185  0.00770   -1.41947    0.73474  241.51154   0.03959  0.04239  0.14628  0.00943 -0.02648 -0.01588
2032 273570.002  -3962916.0098   3351752.1784   3694621.9219   3   2   0.2345   0.2052   0.1726  -0.1267   0.0764  -0.0898   0.00    0.0    7.76410    5.28833    2.77616   0.03300  0.03263  0.02745  0.01084 -0.01469  0.00909   -1.78082    0.64313  242.84239   0.04009  0.04291  0.14759  0.00937 -0.02662 -0.01625
2032 273571.000  -3962911.7079   3351757.4321   3694623.0043   2   8   0.2423   0.2338   0.1882  -0.1299   0.0703  -0.1203   0.00    0.0    7.78269    5.07254    3.12311   0.03326  0.03572  0.02857  0.01313 -0.01683  0.00215   -1.92864    0.84515  245.27878   0.04021  0.04333  0.14878  0.00833 -0.02640 -0.01569
2032 273572.000  -3962908.9142   3351758.3030   3694625.6101   2   9   0.2432   0.2361   0.1886  -0.1323   0.0741  -0.1222   0.00    0.0    7.27578    4.23527    3.42915   0.03337  0.03561  0.02850  0.01296 -0.01634  0.00348   -1.81188    0.67956  249.87081   0.04035  0.04339  0.14847  0.00819 -0.02367 -0.01633
2032 273573.000  -3962906.9379   3351758.6610   3694627.5106   2  20   0.2417   0.2356   0.1871  -0.1316   0.0755  -0.1242   0.00    0.0    6.24747    2.95427    3.53763   0.03336  0.03532  0.02819  0.01301 -0.01569  0.00446   -1.84051    0.39413  253.65806   0.04041  0.04344  0.14838  0.00797 -0.02067 -0.01624
2032 273574.000  -3962905.9592   3351758.7631   3694628.3223   2  17   0.2414   0.2354   0.1864  -0.1311   0.0755  -0.1244   0.00    0.0    5.03329    1.78968    3.31450   0.03356  0.03524  0.02833  0.01278 -0.01554  0.00655   -1.71791   -0.00930  257.29682   0.04047  0.04348  0.14855  0.00790 -0.01765 -0.01513
