% program   : GINav v0.1.0
% obs start : 2018/12/19 03:56:00.0
% obs end   : 2018/12/19 04:02:04.0
% mode      : PPK/INS TC
% system    : GPS GLONASS GALILEO BDS QZSS
% nfreqs    : 1
% elev mask : 15.0 deg
% ephemeris : broadcast
% ionos opt : broadcast model
% trops opt : Saastamoinen model
%
%  GPST              x-ecef(m)      y-ecef(m)      z-ecef(m)   Q  ns   sdx(m)   sdy(m)   sdz(m)  sdxy(m)  sdyz(m)  sdzx(m) age(s)  ratio    vx(m/s)    vy(m/s)    vz(m/s)      sdvx     sdvy     sdvz    sdvxy    sdvyz    sdvzx pitch(deg)  roll(deg)   yaw(deg)       sdp      sdr      sdy     sdpr     sdry     sdyp
2032 273386.000  -3963423.6394   3350882.3296   3694868.8855   3   0  27.8149  26.8883  29.8900 -12.2578   1.1026  -1.1991   0.00    0.0    1.43216    0.01301    1.58108  10.00000 10.00000 10.00000  0.00000 -0.00000  0.00000    0.00000    0.00000  334.01334   0.30000  0.30000  0.50000  0.00000  0.00000  0.00000
2032 273387.000  -3963421.8119   3350882.3023   3694870.9480   1  20   0.0083   0.0098   0.0077  -0.0074   0.0058  -0.0067   0.00    7.4    1.79558   -0.21558    2.18029   9.38979  9.35126  9.48483 -1.46410  0.13260 -0.14334    0.16739    0.34392  334.54280   0.30004  0.30004  0.50003 -0.00000 -0.00025 -0.00308
2032 273388.000  -3963419.6348   3350882.3150   3694873.3292   1  20   0.0083   0.0098   0.0077  -0.0074   0.0058  -0.0067   0.00    7.3    2.38170   -0.02736    2.54637   0.35715  0.44640  0.33172 -0.30205  0.24435 -0.29011    0.10997    0.25561  333.55076   0.30011  0.30011  0.50007 -0.00006  0.00101 -0.00435
2032 273389.000  -3963417.2429   3350882.4466   3694875.9524   1  20   0.0083   0.0098   0.0077  -0.0074   0.0058  -0.0067   0.00    9.7    2.49959   -0.02831    2.70426   0.20606  0.25650  0.19175 -0.17158  0.13786 -0.16358    0.28317    0.57214  332.30522   0.29428  0.29583  0.50007 -0.03887  0.01908  0.01384
2032 273390.000  -3963414.7854   3350882.5958   3694878.5474   1  19   0.0087   0.0106   0.0078  -0.0081   0.0062  -0.0070   0.00    8.8    2.48267   -0.08534    2.68263   0.14796  0.18354  0.13891 -0.11671  0.09179 -0.11065    0.10943    0.64687  331.08147   0.27443  0.28084  0.50006 -0.07647  0.03418  0.03066
2032 273391.000  -3963412.3184   3350882.7903   3694881.0732   1  19   0.0087   0.0106   0.0078  -0.0081   0.0062  -0.0070   0.00   11.7    2.54330   -0.07448    2.73021   0.11818  0.14829  0.11229 -0.08562  0.06270 -0.08161    0.62513    0.72391  329.99887   0.24089  0.25368  0.50004 -0.10262  0.04717  0.04505
2032 273392.000  -3963409.6916   3350883.0830   3694883.7517   1  19   0.0087   0.0106   0.0078  -0.0081   0.0062  -0.0070   0.00   10.9    2.78748    0.00465    2.92062   0.09918  0.12783  0.09557 -0.06527  0.03999 -0.06458    0.76796    0.46081  328.76687   0.20299  0.21972  0.50000 -0.10927  0.06063  0.05107
2032 273393.000  -3963406.7750   3350883.4742   3694886.6379   1  20   0.0087   0.0106   0.0078  -0.0081   0.0062  -0.0070   0.00   11.7    2.99182    0.15164    3.06724   0.08529  0.11341  0.08357 -0.05142  0.02058 -0.05408    0.97192    0.18827  327.65403   0.16859  0.18579  0.49996 -0.10181  0.07162  0.04871
2032 273394.000  -3963403.6726   3350883.9574   3694889.6559   1  20   0.0085   0.0102   0.0077  -0.0078   0.0060  -0.0069   0.00   14.0    3.08572    0.25175    3.06663   0.07444  0.10137  0.07415 -0.04192 -0.00860 -0.04705    0.92140   -0.40271  326.81934   0.14052  0.15609  0.50005 -0.08856  0.07628  0.04443
2032 273395.000  -3963400.5206   3350884.4439   3694892.7041   1  19   0.0087   0.0106   0.0078  -0.0081   0.0062  -0.0070   0.00   14.2    3.08028    0.28462    3.05977   0.06602  0.09128  0.06651 -0.03569 -0.01542 -0.04199    0.88980   -0.48768  326.87923   0.11908  0.13223  0.50019 -0.07485  0.07598  0.04316
2032 273396.000  -3963397.4278   3350884.9152   3694895.7082   1  19   0.0087   0.0106   0.0078  -0.0081   0.0062  -0.0070   0.00   14.8    2.92330    0.27634    2.89819   0.05944  0.08295  0.06034 -0.03188 -0.01565 -0.03830    0.73548   -0.63622  326.99718   0.10335  0.11396  0.50026 -0.06282  0.07152  0.04608
2032 273397.000  -3963394.5291   3350885.3565   3694898.5301   1  20   0.0087   0.0106   0.0078  -0.0081   0.0062  -0.0070   0.00   15.6    2.71177    0.25597    2.68574   0.05433  0.07610  0.05529 -0.02970 -0.01364 -0.03560    1.07804   -0.67425  327.10421   0.09202  0.10030  0.50002 -0.05288  0.06312  0.05147
2032 273398.000  -3963391.8555   3350885.7698   3694901.1516   1  19   0.0091   0.0105   0.0081  -0.0080   0.0063  -0.0075   0.00   11.0    2.47718    0.23607    2.45288   0.05038  0.07032  0.05102 -0.02863 -0.00917 -0.03360    0.94972   -0.60317  327.06514   0.08379  0.09014  0.49937 -0.04465  0.05174  0.05707
2032 273399.000  -3963389.3813   3350886.1403   3694903.5469   1  21   0.0091   0.0104   0.0080  -0.0080   0.0064  -0.0075   0.00   11.4    2.40277    0.23250    2.37557   0.04736  0.06545  0.04746 -0.02828  0.00473 -0.03215    1.31581   -0.54151  327.06180   0.07800  0.08285  0.49850 -0.03819  0.03823  0.06147
2032 273400.000  -3963386.8349   3350886.5401   3694906.0216   1  20   0.0091   0.0104   0.0078  -0.0081   0.0065  -0.0073   0.00   10.8    2.48096    0.27416    2.45861   0.04497  0.06132  0.04441 -0.02841  0.01127 -0.03098    1.08190   -0.65355  327.07606   0.07382  0.07752  0.49834 -0.03285  0.02934  0.06231
2032 273401.000  -3963384.2946   3350886.9419   3694908.4776   1  20   0.0089   0.0106   0.0080  -0.0080   0.0061  -0.0073   0.00   10.2    2.29452    0.23882    2.28416   0.04300  0.05802  0.04198 -0.02847  0.01462 -0.03013    1.16602   -0.70938  327.18420   0.07088  0.07372  0.49820 -0.02858  0.01888  0.06279
2032 273402.000  -3963381.9332   3350887.2766   3694910.8024   1  20   0.0089   0.0105   0.0078  -0.0081   0.0063  -0.0072   0.00    9.7    2.23048    0.17307    2.29869   0.04138  0.05516  0.03988 -0.02868  0.01687 -0.02936    1.25356   -0.65360  328.26525   0.06885  0.07099  0.49799 -0.02518 -0.01235  0.06378
2032 273403.000  -3963379.5312   3350887.5583   3694913.2072   1  21   0.0088   0.0104   0.0077  -0.0081   0.0064  -0.0071   0.00    9.9    2.30025    0.13434    2.41867   0.03999  0.05269  0.03808 -0.02877  0.01840 -0.02867    1.01073   -0.58154  329.13975   0.06744  0.06905  0.49815 -0.02238 -0.01950  0.06410
2032 273404.000  -3963376.8996   3350887.8654   3694915.8087   1  22   0.0086   0.0101   0.0076  -0.0078   0.0062  -0.0069   0.00    9.9    2.69188    0.26493    2.73406   0.03882  0.05057  0.03662 -0.02863  0.01906 -0.02804    1.28202   -0.12102  327.83227   0.06640  0.06766  0.49830 -0.01998 -0.01687  0.06251
2032 273405.000  -3963373.7303   3350888.4413   3694918.7531   1  22   0.0083   0.0099   0.0072  -0.0077   0.0062  -0.0066   0.00    9.6    3.21131    0.46416    3.01559   0.03767  0.04877  0.03546 -0.02834  0.01914 -0.02736    0.96298   -0.79588  324.95049   0.06558  0.06667  0.49683 -0.01788  0.01059  0.05724
2032 273406.000  -3963370.0678   3350889.1950   3694922.0016   1  22   0.0082   0.0098   0.0071  -0.0076   0.0063  -0.0065   0.00    9.3    3.66932    0.64815    3.31488   0.03654  0.04718  0.03437 -0.02789  0.01904 -0.02659    0.40043   -0.98930  323.68993   0.06495  0.06597  0.49302 -0.01620  0.02434  0.04840
2032 273407.000  -3963365.9745   3350889.9664   3694925.6395   1  21   0.0085   0.0103   0.0072  -0.0081   0.0066  -0.0067   0.00    9.6    3.96435    0.54558    3.64898   0.03545  0.04561  0.03300 -0.02719  0.01940 -0.02584   -0.18188   -0.97438  325.17145   0.06454  0.06549  0.48840 -0.01499  0.03466  0.03782
2032 273408.000  -3963361.7063   3350890.6076   3694929.5130   1  21   0.0089   0.0104   0.0075  -0.0082   0.0067  -0.0071   0.00    7.8    3.90873    0.37539    3.72249   0.03432  0.04375  0.03170 -0.02661  0.01996 -0.02486   -0.84655   -0.86809  326.63401   0.06429  0.06517  0.48596 -0.01421  0.04220  0.02963
2032 273409.000  -3963357.4879   3350891.1357   3694933.3740   1  20   0.0089   0.0104   0.0075  -0.0082   0.0067  -0.0070   0.00    8.1    3.89977    0.30325    3.67679   0.03319  0.04214  0.03069 -0.02598  0.01985 -0.02393   -0.62550   -0.75424  326.67767   0.06413  0.06497  0.48541 -0.01371  0.04674  0.02617
2032 273410.000  -3963353.2712   3350891.6858   3694937.1951   1  19   0.0093   0.0104   0.0079  -0.0082   0.0066  -0.0076   0.00    7.0    3.88257    0.31914    3.68488   0.03217  0.04081  0.02981 -0.02520  0.01939 -0.02307   -1.15755   -0.81120  326.20045   0.06398  0.06481  0.48560 -0.01346  0.04883  0.02491
2032 273411.000  -3963349.0527   3350892.2364   3694940.9775   1  21   0.0094   0.0107   0.0084  -0.0081   0.0061  -0.0077   0.00    4.8    3.88431    0.31730    3.68884   0.03124  0.03962  0.02900 -0.02435  0.01874 -0.02225   -1.06949   -0.81951  326.07507   0.06384  0.06468  0.48591 -0.01341  0.04933  0.02528
2032 273412.000  -3963344.8609   3350892.7877   3694944.8030   1  23   0.0091   0.0105   0.0078  -0.0081   0.0064  -0.0073   0.00    4.8    4.00660    0.25520    3.87413   0.03036  0.03850  0.02815 -0.02353  0.01808 -0.02142   -1.11119   -0.50345  326.81507   0.06367  0.06454  0.48608 -0.01342  0.04945  0.02730
2032 273413.000  -3963340.4383   3350893.2899   3694948.8765   1  24   0.0086   0.0104   0.0074  -0.0080   0.0064  -0.0069   0.00    7.7    4.33067    0.32146    4.18928   0.02956  0.03746  0.02728 -0.02264  0.01730 -0.02067   -0.98343   -0.90996  326.60428   0.06347  0.06442  0.48622 -0.01347  0.05144  0.02802
2032 273414.000  -3963335.6315   3350893.9588   3694953.1915   1  23   0.0086   0.0102   0.0074  -0.0079   0.0065  -0.0070   0.00    8.0    4.71778    0.52603    4.32006   0.02872  0.03642  0.02654 -0.02180  0.01639 -0.01994   -1.26610   -0.57384  324.48552   0.06324  0.06431  0.48622 -0.01359  0.05398  0.02381
2032 273415.000  -3963330.4653   3350894.8612   3694957.6062   1  23   0.0085   0.0102   0.0073  -0.0079   0.0066  -0.0069   0.00    9.5    5.00387    0.76940    4.44652   0.02793  0.03543  0.02588 -0.02097  0.01553 -0.01919   -1.32479   -0.71908  322.84210   0.06301  0.06414  0.48527 -0.01385  0.05544  0.00666
2032 273416.000  -3963325.0438   3350895.8258   3694962.1683   1  23   0.0084   0.0101   0.0071  -0.0080   0.0067  -0.0068   0.00    9.7    5.21284    0.71118    4.59385   0.02710  0.03449  0.02503 -0.02012  0.01494 -0.01856   -1.85751   -0.88383  323.30041   0.06279  0.06395  0.48437 -0.01411  0.05690 -0.02200
2032 273417.000  -3963319.5879   3350896.7408   3694966.8286   1  23   0.0084   0.0101   0.0071  -0.0079   0.0067  -0.0068   0.00    9.6    5.26689    0.63666    4.69997   0.02630  0.03358  0.02427 -0.01932  0.01436 -0.01791   -1.77782   -1.21824  324.08829   0.06256  0.06374  0.48463 -0.01423  0.05830 -0.02752
2032 273418.000  -3963314.0255   3350897.5462   3694971.6511   1  23   0.0084   0.0101   0.0070  -0.0079   0.0068  -0.0068   0.00    9.6    5.44744    0.54952    4.95652   0.02559  0.03277  0.02355 -0.01853  0.01371 -0.01727   -1.99378   -1.13066  325.02816   0.06233  0.06356  0.48481 -0.01423  0.06062 -0.02950
2032 273419.000  -3963308.2799   3350898.2945   3694976.7021   1  23   0.0084   0.0100   0.0070  -0.0079   0.0068  -0.0068   0.00    9.9    5.56678    0.54202    5.17208   0.02488  0.03195  0.02290 -0.01780  0.01304 -0.01666   -1.81206   -1.04787  325.47880   0.06210  0.06343  0.48450 -0.01414  0.06358 -0.03026
2032 273420.000  -3963302.4242   3350899.0347   3694981.8869   1  24   0.0084   0.0100   0.0070  -0.0079   0.0068  -0.0068   0.00    9.9    5.66562    0.57379    5.20672   0.02413  0.03109  0.02228 -0.01714  0.01238 -0.01613   -1.94917   -1.18375  325.13115   0.06185  0.06329  0.48443 -0.01394  0.06576 -0.02984
2032 273421.000  -3963296.5045   3350899.7785   3694987.1070   1  24   0.0082   0.0100   0.0069  -0.0079   0.0067  -0.0066   0.00   11.8    5.70507    0.56569    5.25171   0.02344  0.03031  0.02169 -0.01648  0.01173 -0.01561   -2.03291   -1.29809  325.33410   0.06161  0.06313  0.48460 -0.01362  0.06682 -0.02865
2032 273422.000  -3963290.5929   3350900.5350   3694992.3746   1  22   0.0090   0.0101   0.0071  -0.0081   0.0068  -0.0071   0.00   12.2    5.74646    0.55534    5.25509   0.02280  0.02959  0.02112 -0.01583  0.01109 -0.01514   -2.17306   -1.52108  325.27527   0.06137  0.06292  0.48458 -0.01318  0.06679 -0.02617
2032 273423.000  -3963284.6115   3350901.2931   3694997.6503   1  23   0.0092   0.0102   0.0074  -0.0082   0.0069  -0.0074   0.00   12.2    5.87988    0.63221    5.34022   0.02222  0.02882  0.02053 -0.01519  0.01059 -0.01467   -1.86175   -1.36340  325.07079   0.06115  0.06271  0.48459 -0.01273  0.06613 -0.02428
2032 273424.000  -3963278.5256   3350902.1244   3695003.0077   1  20   0.0093   0.0102   0.0076  -0.0080   0.0067  -0.0076   0.00   15.1    5.95290    0.70657    5.39418   0.02167  0.02812  0.01999 -0.01456  0.01006 -0.01422   -1.96200   -1.42899  324.90990   0.06095  0.06250  0.48466 -0.01231  0.06513 -0.02396
2032 273425.000  -3963272.3624   3350902.9621   3695008.4007   1  19   0.0097   0.0102   0.0081  -0.0081   0.0067  -0.0080   0.00   15.1    6.02516    0.70639    5.41997   0.02113  0.02744  0.01949 -0.01399  0.00955 -0.01380   -1.92560   -1.26776  325.10183   0.06076  0.06228  0.48453 -0.01190  0.06372 -0.02386
2032 273426.000  -3963266.1685   3350903.7956   3695013.8305   1  18   0.0098   0.0102   0.0084  -0.0081   0.0068  -0.0082   0.00    9.2    6.00075    0.70862    5.44420   0.02063  0.02686  0.01905 -0.01341  0.00897 -0.01341   -2.07795   -1.27529  325.40069   0.06060  0.06208  0.48421 -0.01148  0.06198 -0.02311
2032 273427.000  -3963260.1600   3350904.6275   3695019.0816   1  18   0.0098   0.0102   0.0084  -0.0081   0.0068  -0.0082   0.00    9.5    5.48103    0.65924    4.89804   0.02034  0.02737  0.01905 -0.01193  0.00677 -0.01350   -2.56056   -1.16238  325.30128   0.06043  0.06181  0.48054 -0.01091  0.05731 -0.01696
2032 273428.000  -3963254.8186   3350905.4125   3695023.7124   1  15   0.0110   0.0122   0.0098  -0.0072   0.0047  -0.0095   0.00    3.6    4.58863    0.63161    4.13083   0.02039  0.02941  0.01971 -0.00875 -0.00539 -0.01422   -2.84800   -1.64657  325.40579   0.06025  0.06148  0.46380 -0.01032  0.04553  0.01672
2032 273429.000  -3963250.5160   3350906.0579   3695027.4321   1  16   0.0111   0.0134   0.0099  -0.0076   0.0052  -0.0096   0.00    3.3    3.41947    0.45016    3.12913   0.02036  0.03178  0.02083 -0.00420 -0.01116 -0.01505   -2.55017   -1.68870  326.40128   0.06009  0.06121  0.42561 -0.01014  0.02039  0.03363
2032 273430.000  -3963247.4601   3350906.5280   3695030.1294   1  16   0.0104   0.0131   0.0093  -0.0081   0.0059  -0.0089   0.00    3.3    2.53970    0.31415    2.31051   0.01989  0.03103  0.02043 -0.00463 -0.01072 -0.01467   -1.88514   -1.51350  327.57798   0.05997  0.06115  0.37557 -0.01086 -0.03234  0.04323
2032 273431.000  -3963244.6954   3350906.2319   3695032.5719   2  18   0.1262   0.1507   0.1084  -0.1162   0.0953  -0.1014   0.00    2.1    2.55425    0.27015    2.39053   0.02286  0.03196  0.02146 -0.01355  0.00859 -0.01640   -1.66754   -1.70571  328.41074   0.05988  0.06123  0.34761 -0.01180 -0.04451  0.04780
2032 273432.000  -3963242.3813   3350907.2157   3695034.6656   1  18   0.0096   0.0126   0.0087  -0.0084   0.0065  -0.0082   0.00    3.5    2.53990    0.35717    2.40432   0.01826  0.02496  0.01738 -0.01002  0.00466 -0.01187   -1.06242   -1.51113  328.58435   0.05977  0.06135  0.33659 -0.01248 -0.05141  0.05035
2032 273433.000  -3963239.8399   3350907.5997   3695036.9923   1  19   0.0092   0.0124   0.0084  -0.0084   0.0066  -0.0078   0.00    5.3    2.42238    0.35360    2.25702   0.01782  0.02388  0.01676 -0.01010  0.00558 -0.01127   -1.00406   -1.20805  328.23137   0.05965  0.06143  0.33283 -0.01288 -0.05602  0.05186
2032 273434.000  -3963237.7307   3350907.9909   3695038.8942   1  20   0.0088   0.0117   0.0080  -0.0085   0.0069  -0.0074   0.00    6.1    1.44483    0.28376    1.35016   0.01768  0.02439  0.01682 -0.00894  0.00344 -0.01141   -1.11577   -1.23850  327.23961   0.05950  0.06156  0.32847 -0.01333 -0.06036  0.05294
2032 273435.000  -3963236.6305   3350908.2125   3695039.8418   1  20   0.0088   0.0114   0.0079  -0.0084   0.0070  -0.0074   0.00    6.1    0.54878    0.13934    0.55472   0.01743  0.02447  0.01681 -0.00826 -0.00143 -0.01141   -0.54120   -1.29363  326.65741   0.05938  0.06181  0.31965 -0.01407 -0.06466  0.05390
2032 273436.000  -3963236.1069   3350908.3249   3695040.3100   1  19   0.0095   0.0114   0.0081  -0.0090   0.0076  -0.0079   0.00    6.5    0.58343    0.14211    0.59513   0.01682  0.02253  0.01591 -0.00921  0.00486 -0.01048    0.30573   -0.97132  326.29295   0.05931  0.06208  0.31416 -0.01483 -0.06818  0.05504
2032 273437.000  -3963235.5045   3350908.4682   3695040.8441   1  19   0.0095   0.0114   0.0081  -0.0090   0.0076  -0.0079   0.00    6.5    0.53111    0.13365    0.55885   0.01641  0.02160  0.01545 -0.00925  0.00514 -0.00997    0.46284   -0.83739  325.83999   0.05928  0.06224  0.31377 -0.01532 -0.07056  0.05601
2032 273438.000  -3963235.2280   3350908.5468   3695041.1035   1  19   0.0094   0.0111   0.0081  -0.0089   0.0076  -0.0078   0.00    8.4    0.03059    0.00344    0.08806   0.01611  0.02118  0.01522 -0.00896  0.00483 -0.00975    0.87612   -0.76222  325.68314   0.05930  0.06239  0.31385 -0.01582 -0.07262  0.05707
2032 273439.000  -3963235.2330   3350908.5513   3695041.1021   1  21   0.0094   0.0111   0.0080  -0.0089   0.0076  -0.0078   0.00    9.1   -0.00320   -0.00590    0.08241   0.01583  0.02073  0.01494 -0.00864  0.00430 -0.00945    0.78797   -0.76977  325.68698   0.05934  0.06248  0.31446 -0.01619 -0.07398  0.05791
2032 273440.000  -3963235.2296   3350908.5475   3695041.0997   1  21   0.0091   0.0105   0.0077  -0.0084   0.0073  -0.0075   0.00    9.7   -0.02052   -0.01887    0.08083   0.01562  0.02061  0.01479 -0.00806  0.00294 -0.00931    0.80953   -0.76672  325.61841   0.05937  0.06242  0.31436 -0.01626 -0.07411  0.05803
2032 273441.000  -3963235.2329   3350908.5512   3695041.1016   1  23   0.0089   0.0103   0.0076  -0.0082   0.0071  -0.0074   0.00   10.3   -0.02981   -0.03267    0.07057   0.01546  0.02063  0.01470 -0.00739 -0.00147 -0.00924    0.83311   -0.77542  325.49547   0.05939  0.06224  0.31249 -0.01604 -0.07299  0.05735
2032 273442.000  -3963235.2296   3350908.5484   3695041.0990   1  25   0.0086   0.0101   0.0074  -0.0080   0.0070  -0.0071   0.00   10.4   -0.04637   -0.03943    0.06418   0.01531  0.02065  0.01461 -0.00671 -0.00335 -0.00919    0.85016   -0.79267  325.31458   0.05939  0.06195  0.30862 -0.01559 -0.07077  0.05593
2032 273443.000  -3963235.2357   3350908.5508   3695041.1017   1  25   0.0082   0.0100   0.0071  -0.0078   0.0068  -0.0067   0.00   10.7   -0.05416   -0.04478    0.04974   0.01515  0.02059  0.01450 -0.00616 -0.00418 -0.00911    0.87178   -0.80964  325.10351   0.05937  0.06160  0.30313 -0.01497 -0.06774  0.05390
2032 273444.000  -3963235.2353   3350908.5545   3695041.1013   1  25   0.0079   0.0097   0.0069  -0.0075   0.0066  -0.0064   0.00    4.2   -0.06210   -0.04505    0.03864   0.01499  0.02044  0.01437 -0.00574 -0.00455 -0.00899    0.87563   -0.82405  324.88631   0.05935  0.06123  0.29663 -0.01427 -0.06420  0.05142
2032 273445.000  -3963235.2303   3350908.5456   3695041.0968   1  25   0.0078   0.0097   0.0068  -0.0075   0.0066  -0.0064   0.00    4.6   -0.06779   -0.04264    0.03105   0.01482  0.02022  0.01420 -0.00549 -0.00465 -0.00885    0.88410   -0.85445  324.67582   0.05932  0.06088  0.28974 -0.01355 -0.06043  0.04866
2032 273446.000  -3963235.1104   3350908.0950   3695041.2373   2  24   0.1080   0.1296   0.0927  -0.0997   0.0828  -0.0867   0.00    2.7   -0.06731   -0.09244    0.03405   0.01832  0.02469  0.01685 -0.01026  0.00689 -0.01224    0.89896   -0.88426  324.46965   0.05930  0.06055  0.28307 -0.01285 -0.05661  0.04571
2032 273447.000  -3963235.1263   3350908.1165   3695041.2365   2  26   0.1067   0.1283   0.0916  -0.0987   0.0819  -0.0857   0.00    2.6   -0.07231   -0.08551    0.02447   0.01810  0.02434  0.01663 -0.01018  0.00696 -0.01203    0.90717   -0.90683  324.28608   0.05929  0.06026  0.27679 -0.01222 -0.05294  0.04269
2032 273448.000  -3963235.1438   3350908.1344   3695041.2361   2  25   0.1056   0.1270   0.0906  -0.0977   0.0812  -0.0847   0.00    2.7   -0.07652   -0.07867    0.01728   0.01789  0.02399  0.01641 -0.01014  0.00709 -0.01182    0.91918   -0.92924  324.13493   0.05927  0.06001  0.27119 -0.01167 -0.04948  0.03963
2032 273449.000  -3963235.1582   3350908.1477   3695041.2377   2  25   0.1045   0.1258   0.0896  -0.0967   0.0804  -0.0838   0.00    2.7   -0.07950   -0.07255    0.00907   0.01768  0.02364  0.01620 -0.01012  0.00724 -0.01162    0.92026   -0.94845  324.00556   0.05926  0.05979  0.26638 -0.01121 -0.04628  0.03657
2032 273450.000  -3963235.1598   3350908.1430   3695041.2238   2  25   0.1034   0.1245   0.0887  -0.0957   0.0797  -0.0829   0.00    2.8   -0.07931   -0.07122    0.00235   0.01748  0.02330  0.01599 -0.01010  0.00738 -0.01143    0.92474   -0.95946  323.89480   0.05925  0.05960  0.26237 -0.01085 -0.04334  0.03352
2032 273451.000  -3963235.1684   3350908.1513   3695041.2198   2  26   0.1023   0.1234   0.0877  -0.0947   0.0789  -0.0820   0.00    2.9   -0.08271   -0.06745   -0.00398   0.01729  0.02297  0.01578 -0.01008  0.00752 -0.01124    0.92575   -0.96506  323.79176   0.05924  0.05944  0.25913 -0.01058 -0.04066  0.03051
2032 273452.000  -3963235.1743   3350908.1522   3695041.2180   2  25   0.1013   0.1222   0.0868  -0.0938   0.0782  -0.0811   0.00    3.0   -0.08539   -0.06540   -0.00998   0.01710  0.02265  0.01558 -0.01007  0.00764 -0.01106    0.92726   -0.97006  323.70402   0.05924  0.05930  0.25662 -0.01039 -0.03821  0.02752
2032 273453.000  -3963235.2341   3350908.5529   3695041.0960   1  25   0.0077   0.0097   0.0066  -0.0074   0.0065  -0.0062   0.00    3.0   -0.08329   -0.01384   -0.02287   0.01350  0.01776  0.01273 -0.00591 -0.00050 -0.00743    0.92712   -0.98352  323.61180   0.05923  0.05918  0.25469 -0.01027 -0.03601  0.02456
2032 273454.000  -3963235.2376   3350908.5492   3695041.0987   1  25   0.0077   0.0097   0.0066  -0.0074   0.0065  -0.0062   0.00    3.1   -0.07910   -0.01532   -0.02768   0.01336  0.01751  0.01258 -0.00597  0.00140 -0.00730    0.94134   -0.99195  323.54726   0.05921  0.05909  0.25339 -0.01022 -0.03400  0.02158
2032 273455.000  -3963235.2389   3350908.5562   3695041.1014   1  25   0.0077   0.0097   0.0066  -0.0074   0.0065  -0.0062   0.00    3.2   -0.07643   -0.01435   -0.02971   0.01324  0.01728  0.01244 -0.00601  0.00197 -0.00717    0.93269   -1.01330  323.49544   0.05920  0.05901  0.25257 -0.01022 -0.03217  0.01856
2032 273456.000  -3963235.2352   3350908.5522   3695041.0980   1  26   0.0077   0.0097   0.0066  -0.0074   0.0065  -0.0062   0.00    3.2   -0.07466   -0.01347   -0.03472   0.01312  0.01707  0.01231 -0.00603  0.00233 -0.00706    0.92651   -1.02737  323.45121   0.05918  0.05894  0.25218 -0.01026 -0.03051  0.01545
2032 273457.000  -3963235.2394   3350908.5574   3695041.0973   1  25   0.0077   0.0097   0.0066  -0.0074   0.0065  -0.0062   0.00    3.3   -0.07029   -0.00923   -0.03604   0.01300  0.01688  0.01219 -0.00604  0.00258 -0.00697    0.90341   -1.03668  323.41176   0.05917  0.05889  0.25213 -0.01032 -0.02902  0.01210
2032 273458.000  -3963235.2414   3350908.5602   3695041.1022   1  25   0.0077   0.0097   0.0066  -0.0074   0.0065  -0.0062   0.00    3.3   -0.06434   -0.00799   -0.03433   0.01290  0.01670  0.01208 -0.00604  0.00277 -0.00688    0.89621   -1.03505  323.38583   0.05914  0.05886  0.25236 -0.01041 -0.02768  0.00814
2032 273459.000  -3963235.2160   3350908.5663   3695041.1275   1  26   0.0077   0.0097   0.0066  -0.0074   0.0065  -0.0062   0.00    3.3    0.02908    0.01370    0.04420   0.01283  0.01660  0.01199 -0.00601  0.00277 -0.00684    0.96915   -1.03020  323.30753   0.05912  0.05883  0.25270 -0.01050 -0.02634 -0.00311
2032 273460.000  -3963234.9202   3350908.6480   3695041.3863   1  25   0.0077   0.0097   0.0066  -0.0074   0.0065  -0.0062   0.00    3.9    0.72502    0.18628    0.63445   0.01298  0.01717  0.01222 -0.00569 -0.00166 -0.00721    1.52635   -0.85654  322.76404   0.05909  0.05879  0.25189 -0.01064 -0.02387 -0.01168
2032 273461.000  -3963233.7664   3350908.9732   3695042.3570   1  24   0.0081   0.0098   0.0066  -0.0077   0.0066  -0.0064   0.00    6.2    1.47130    0.50161    1.24080   0.01314  0.01782  0.01260 -0.00559 -0.00407 -0.00755    1.56852   -0.39896  319.12114   0.05905  0.05868  0.24622 -0.01096 -0.01794 -0.01928
2032 273462.000  -3963232.0130   3350909.7111   3695043.6342   1  24   0.0081   0.0098   0.0067  -0.0076   0.0066  -0.0064   0.00    7.1    1.61006    0.76365    1.14402   0.01297  0.01721  0.01225 -0.00637 -0.00242 -0.00695    1.53793   -0.57655  311.82113   0.05901  0.05850  0.23984 -0.01139 -0.01269 -0.02579
2032 273463.000  -3963230.3412   3350910.7054   3695044.6731   1  24   0.0081   0.0098   0.0067  -0.0076   0.0066  -0.0064   0.00    7.3    1.81675    1.13114    1.00740   0.01314  0.01721  0.01214 -0.00674 -0.00216 -0.00615    2.00330   -0.82595  303.19002   0.05886  0.05797  0.23729 -0.01147 -0.01556 -0.03049
2032 273464.000  -3963228.2466   3350912.2958   3695045.5978   1  24   0.0091   0.0103   0.0069  -0.0084   0.0070  -0.0069   0.00    8.4    2.30063    2.00619    0.81830   0.01413  0.01786  0.01267 -0.00689 -0.00414 -0.00431    1.80999   -0.18454  289.51343   0.05819  0.05644  0.23269 -0.01026 -0.02705 -0.03489
2032 273465.000  -3963225.7247   3350914.9790   3695045.9980   1  23   0.0097   0.0124   0.0081  -0.0098   0.0090  -0.0080   0.00    7.1    2.64009    3.38579   -0.10582   0.01634  0.01898  0.01366 -0.00504 -0.00597  0.00322    1.25507    0.66648  269.73557   0.05606  0.05309  0.22303 -0.00483 -0.04469 -0.03633
2032 273466.000  -3963223.3214   3350919.0583   3695045.1266   1  23   0.0113   0.0149   0.0091  -0.0120   0.0107  -0.0093   0.00    5.6    2.22520    4.69761   -1.77090   0.01827  0.02089  0.01468  0.00587 -0.00876  0.00277    0.78037   -0.65556  248.50185   0.05104  0.04817  0.21169  0.00685 -0.06032 -0.03033
2032 273467.000  -3963221.3456   3350924.0023   3695042.9720   1  23   0.0106   0.0136   0.0082  -0.0110   0.0095  -0.0085   0.00   11.6    1.99323    5.54889   -2.76374   0.01824  0.02168  0.01570  0.00739 -0.01104 -0.00299    0.81947   -1.86930  239.43383   0.04351  0.04241  0.20683 -0.00082 -0.06752 -0.01400
2032 273468.000  -3963219.2972   3350929.8161   3695040.1334   1  21   0.0112   0.0159   0.0094  -0.0121   0.0113  -0.0093   0.00   10.9    2.23778    6.36455   -3.20466   0.01759  0.02122  0.01560  0.00724 -0.01104 -0.00434    1.05324   -2.32450  237.87489   0.03614  0.03729  0.20672 -0.00714 -0.06936  0.01498
2032 273469.000  -3963216.9825   3350936.5198   3695036.8751   1  21   0.0110   0.0158   0.0093  -0.0119   0.0112  -0.0091   0.00    5.8    2.47727    7.18900   -3.61329   0.01682  0.02038  0.01491  0.00679 -0.01021 -0.00516    1.01491   -1.64102  236.96589   0.03034  0.03331  0.20756 -0.00717 -0.06865  0.01703
2032 273470.000  -3963214.4723   3350944.1285   3695033.0349   1  22   0.0110   0.0158   0.0093  -0.0119   0.0112  -0.0091   0.00    6.6    2.70879    8.06415   -4.17728   0.01605  0.01949  0.01415  0.00612 -0.00915 -0.00569    0.89557   -1.23089  235.94401   0.02619  0.03042  0.20779 -0.00578 -0.06698  0.01458
2032 273471.000  -3963211.7299   3350952.6012   3695028.6713   1  22   0.0110   0.0154   0.0091  -0.0119   0.0109  -0.0091   0.00    7.3    2.90092    8.71013   -4.45880   0.01551  0.01872  0.01342  0.00548 -0.00802 -0.00573    0.83188   -1.22045  236.07591   0.02337  0.02825  0.20705 -0.00340 -0.06480  0.00855
2032 273472.000  -3963208.8254   3350961.5810   3695024.0787   1  22   0.0113   0.0154   0.0096  -0.0122   0.0111  -0.0094   0.00   10.3    2.94116    9.02725   -4.52504   0.01522  0.01811  0.01288  0.00507 -0.00667 -0.00513    1.20422   -1.54172  236.23396   0.02154  0.02614  0.20321  0.00246 -0.06091 -0.00803
2032 273473.000  -3963205.8665   3350970.7627   3695019.3070   1  22   0.0106   0.0154   0.0097  -0.0115   0.0111  -0.0090   0.00   10.1    3.15196    9.39472   -4.84335   0.01462  0.01751  0.01236  0.00434 -0.00542 -0.00513    0.66783   -1.59690  236.43651   0.02041  0.02423  0.19629  0.00391 -0.05588 -0.01230
2032 273474.000  -3963202.6823   3350980.4356   3695014.3077   1  22   0.0102   0.0146   0.0093  -0.0111   0.0105  -0.0087   0.00   10.5    3.35380    9.87464   -5.00005   0.01408  0.01700  0.01191  0.00351 -0.00430 -0.00528    0.79478   -1.48727  237.11993   0.01978  0.02293  0.18997  0.00450 -0.05154 -0.01449
2032 273475.000  -3963199.3143   3350990.5107   3695009.1364   1  22   0.0101   0.0142   0.0091  -0.0108   0.0102  -0.0085   0.00   10.8    3.54254   10.18238   -5.21921   0.01363  0.01651  0.01157  0.00233 -0.00298 -0.00526    0.42844   -1.55403  237.46289   0.01947  0.02205  0.18394  0.00460 -0.04760 -0.01522
2032 273476.000  -3963195.7910   3351000.8573   3695003.8072   1  22   0.0099   0.0140   0.0089  -0.0107   0.0100  -0.0084   0.00   11.3    3.61572   10.31570   -5.31364   0.01335  0.01609  0.01138  0.00071 -0.00042 -0.00497    0.03485   -0.92464  237.64255   0.01938  0.02149  0.17790  0.00434 -0.04386 -0.01458
2032 273477.000  -3963192.2187   3351011.2954   3694998.3673   1  25   0.0094   0.0135   0.0086  -0.0102   0.0097  -0.0081   0.00    8.3    3.63573   10.38008   -5.46290   0.01304  0.01570  0.01125 -0.00226  0.00245 -0.00479    0.09728   -1.39367  237.72853   0.01941  0.02113  0.17139  0.00375 -0.04011 -0.01224
2032 273478.000  -3963188.6278   3351021.7970   3694992.8867   1  25   0.0088   0.0124   0.0080  -0.0093   0.0088  -0.0075   0.00    9.4    3.56673   10.59021   -5.42916   0.01273  0.01539  0.01110 -0.00308  0.00308 -0.00483    0.18091   -1.29244  237.78264   0.01953  0.02097  0.16532  0.00292 -0.03660 -0.00771
2032 273479.000  -3963185.0646   3351032.5145   3694987.3355   1  27   0.0085   0.0120   0.0078  -0.0090   0.0085  -0.0072   0.00   10.6    3.45554   10.84037   -5.44450   0.01243  0.01513  0.01098 -0.00372  0.00339 -0.00497    0.80278   -0.91046  237.65477   0.01969  0.02100  0.16069  0.00182 -0.03366  0.00665
2032 273480.000  -3963181.5138   3351043.4096   3694981.6777   1  27   0.0081   0.0109   0.0072  -0.0083   0.0076  -0.0067   0.00   11.8    3.60625   10.65121   -5.58970   0.01228  0.01490  0.01088 -0.00404  0.00379 -0.00489    0.28661   -1.54885  237.76556   0.01989  0.02114  0.15710 -0.00111 -0.03112  0.01246
2032 273481.000  -3963177.9833   3351054.0613   3694976.1359   1  27   0.0079   0.0105   0.0069  -0.0080   0.0072  -0.0065   0.00   13.1    3.50784   10.48096   -5.42883   0.01221  0.01478  0.01084 -0.00422  0.00405 -0.00475    0.45055   -1.42710  237.99841   0.02012  0.02131  0.15288 -0.00230 -0.02835  0.01690
2032 273482.000  -3963174.6181   3351064.3236   3694970.8529   2  26   0.0823   0.1015   0.0695  -0.0776   0.0661  -0.0653   0.00    2.5    3.38549   10.14824   -5.31790   0.01470  0.01853  0.01290 -0.00812  0.00790 -0.00792   -0.35707   -1.22138  237.75837   0.02037  0.02151  0.14883 -0.00290 -0.02559  0.02061
2032 273483.000  -3963171.2339   3351074.6350   3694965.3517   1  26   0.0077   0.0097   0.0067  -0.0074   0.0066  -0.0062   0.00    3.4    3.25842    9.90755   -5.20603   0.01197  0.01457  0.01074 -0.00466  0.00422 -0.00473    0.07226   -1.68194  237.74620   0.02066  0.02172  0.14514 -0.00319 -0.02298  0.02378
2032 273484.000  -3963167.9568   3351084.4732   3694960.1671   1  26   0.0076   0.0092   0.0064  -0.0071   0.0062  -0.0060   0.00    4.1    3.25137    9.62270   -5.06142   0.01182  0.01451  0.01060 -0.00480  0.00420 -0.00492   -0.06006   -1.55873  238.07757   0.02097  0.02194  0.14230 -0.00325 -0.02046  0.02645
2032 273485.000  -3963164.7290   3351094.0811   3694955.1123   1  26   0.0079   0.0093   0.0064  -0.0073   0.0062  -0.0062   0.00    4.2    3.24699    9.54009   -5.02911   0.01161  0.01444  0.01044 -0.00499  0.00403 -0.00526   -0.01893   -1.80976  238.22531   0.02128  0.02215  0.14075 -0.00312 -0.01819  0.02865
2032 273486.000  -3963161.4632   3351103.6734   3694950.0464   1  26   0.0079   0.0093   0.0064  -0.0073   0.0062  -0.0062   0.00    4.6    3.32672    9.70354   -5.12127   0.01141  0.01434  0.01031 -0.00515  0.00377 -0.00557   -0.04513   -1.59149  238.22041   0.02153  0.02234  0.14086 -0.00287 -0.01638  0.03031
2032 273487.000  -3963158.0976   3351113.5116   3694944.8396   1  26   0.0078   0.0092   0.0063  -0.0072   0.0062  -0.0060   0.00    5.0    3.39539   10.01327   -5.31077   0.01132  0.01423  0.01029 -0.00523  0.00356 -0.00567   -0.14385   -1.28723  238.05921   0.02167  0.02250  0.14213 -0.00254 -0.01512  0.03119
2032 273488.000  -3963154.6603   3351123.5861   3694939.4457   1  26   0.0077   0.0092   0.0063  -0.0072   0.0062  -0.0060   0.00    4.2    3.47556   10.02598   -5.36235   0.01129  0.01417  0.01025 -0.00525  0.00352 -0.00567   -0.49101   -1.84567  238.20261   0.02171  0.02263  0.14355 -0.00221 -0.01436  0.03146
2032 273489.000  -3963151.2041   3351133.5227   3694934.1196   1  25   0.0079   0.0092   0.0064  -0.0073   0.0062  -0.0062   0.00    6.7    3.28802    9.42725   -5.06228   0.01127  0.01420  0.01017 -0.00524  0.00371 -0.00559   -0.95727   -1.68510  238.22564   0.02178  0.02273  0.14504 -0.00183 -0.01342  0.03189
2032 273490.000  -3963147.9425   3351142.9011   3694929.0771   1  24   0.0079   0.0093   0.0065  -0.0073   0.0062  -0.0062   0.00    7.7    3.18793    9.23556   -4.98559   0.01122  0.01417  0.01013 -0.00527  0.00369 -0.00558   -0.84366   -1.60661  237.95853   0.02194  0.02280  0.14633 -0.00134 -0.01195  0.03294
2032 273491.000  -3963144.7602   3351152.1118   3694924.0547   1  24   0.0079   0.0093   0.0065  -0.0073   0.0062  -0.0062   0.00    8.3    3.15702    9.06175   -5.02459   0.01115  0.01411  0.01008 -0.00531  0.00368 -0.00560   -0.90462   -1.57314  237.65845   0.02208  0.02285  0.14779 -0.00071 -0.01069  0.03384
2032 273492.000  -3963141.6180   3351161.1645   3694919.0798   1  21   0.0103   0.0128   0.0077  -0.0103   0.0084  -0.0080   0.00   14.5    3.15406    8.94799   -4.90812   0.01115  0.01413  0.01003 -0.00537  0.00366 -0.00561   -1.06065   -1.70415  238.07634   0.02221  0.02290  0.14936  0.00069 -0.00952  0.03458
2032 273493.000  -3963138.3945   3351170.2224   3694914.1568   1  21   0.0103   0.0123   0.0076  -0.0101   0.0082  -0.0079   0.00   15.3    3.33012    9.16100   -4.98776   0.01116  0.01403  0.01003 -0.00538  0.00351 -0.00558   -0.96965   -1.72146  238.54422   0.02225  0.02292  0.15095  0.00122 -0.00849  0.03480
2032 273494.000  -3963134.9992   3351179.5482   3694909.0946   1  22   0.0102   0.0121   0.0076  -0.0100   0.0082  -0.0079   0.00   15.4    3.45239    9.54311   -5.17793   0.01124  0.01392  0.01012 -0.00532  0.00342 -0.00540   -1.37130   -1.96571  238.52258   0.02214  0.02293  0.15192  0.00137 -0.00834  0.03405
2032 273495.000  -3963131.4682   3351189.2741   3694903.7803   1  22   0.0097   0.0117   0.0074  -0.0095   0.0079  -0.0076   0.00   16.4    3.54906    9.96443   -5.35595   0.01132  0.01383  0.01020 -0.00522  0.00339 -0.00519   -0.73638   -2.09419  238.44966   0.02193  0.02293  0.15168  0.00119 -0.00945  0.03226
2032 273496.000  -3963127.7860   3351199.3978   3694898.2883   1  22   0.0094   0.0115   0.0073  -0.0092   0.0077  -0.0074   0.00   17.2    3.76866   10.21940   -5.61667   0.01130  0.01372  0.01019 -0.00517  0.00345 -0.00514   -1.40696   -1.83681  238.56858   0.02167  0.02292  0.15054  0.00090 -0.01099  0.02973
2032 273497.000  -3963124.0081   3351209.7823   3694892.6490   1  22   0.0108   0.0139   0.0089  -0.0112   0.0100  -0.0089   0.00   17.7    3.92961   10.16356   -5.76900   0.01115  0.01368  0.01003 -0.00523  0.00363 -0.00536   -2.12615   -2.42265  238.62239   0.02149  0.02293  0.14994  0.00073 -0.01237  0.02735
2032 273498.000  -3963120.1192   3351220.0959   3694886.8944   1  21   0.0104   0.0137   0.0088  -0.0108   0.0098  -0.0087   0.00   18.6    3.80787   10.32321   -5.68366   0.01105  0.01368  0.00994 -0.00519  0.00361 -0.00543   -1.61651   -2.02343  238.41145   0.02140  0.02294  0.15019  0.00053 -0.01357  0.02546
2032 273499.000  -3963116.3168   3351230.5341   3694881.2251   1  24   0.0097   0.0131   0.0085  -0.0101   0.0094  -0.0082   0.00   17.9    3.79532   10.40298   -5.72049   0.01094  0.01364  0.00985 -0.00516  0.00366 -0.00548   -1.28073   -0.83937  238.06969   0.02135  0.02294  0.15120 -0.00027 -0.01442  0.02421
2032 273500.000  -3963112.5396   3351241.0153   3694875.3642   1  23   0.0093   0.0121   0.0078  -0.0094   0.0085  -0.0076   0.00   18.9    3.83285   10.54959   -5.82592   0.01089  0.01357  0.00979 -0.00515  0.00364 -0.00546   -1.77059   -2.27582  238.06101   0.02134  0.02295  0.15247 -0.00073 -0.01543  0.02318
2032 273501.000  -3963108.7264   3351251.6075   3694869.5567   1  22   0.0106   0.0128   0.0081  -0.0106   0.0090  -0.0084   0.00   19.4    3.77853   10.50775   -5.76843   0.01083  0.01355  0.00972 -0.00520  0.00369 -0.00549   -1.25875   -1.73938  238.17172   0.02136  0.02296  0.15402 -0.00097 -0.01612  0.02256
2032 273502.000  -3963104.9447   3351262.1331   3694863.7625   1  18   0.0120   0.0135   0.0083  -0.0113   0.0093  -0.0086   0.00   16.4    3.83474   10.56235   -5.86448   0.01084  0.01351  0.00969 -0.00521  0.00372 -0.00543   -1.34083   -2.14996  238.11640   0.02143  0.02298  0.15578 -0.00103 -0.01658  0.02246
2032 273503.000  -3963101.1600   3351272.7845   3694857.9272   1  18   0.0121   0.0135   0.0088  -0.0114   0.0095  -0.0088   0.00   17.6    3.82406   10.62058   -5.97744   0.01080  0.01345  0.00967 -0.00521  0.00375 -0.00542   -1.95888   -2.77554  237.97221   0.02149  0.02300  0.15757 -0.00125 -0.01709  0.02240
2032 273504.000  -3963097.3998   3351283.4942   3694851.9591   1  17   0.0125   0.0155   0.0102  -0.0125   0.0114  -0.0098   0.00   20.4    3.69317   10.72849   -5.90476   0.01079  0.01347  0.00967 -0.00521  0.00382 -0.00538   -0.90865   -2.70654  237.62027   0.02156  0.02304  0.15938 -0.00140 -0.01778  0.02251
2032 273505.000  -3963093.6439   3351294.2469   3694846.0402   1  20   0.0127   0.0153   0.0109  -0.0125   0.0115  -0.0101   0.00   25.5    3.78548   10.82250   -5.97106   0.01076  0.01340  0.00967 -0.00520  0.00381 -0.00538   -1.08098   -2.03012  237.80980   0.02164  0.02307  0.16124 -0.00160 -0.01815  0.02281
2032 273506.000  -3963089.7266   3351305.1835   3694840.0257   1  15   0.0195   0.0237   0.0134  -0.0197   0.0158  -0.0138   0.00   12.9    4.01910   11.13182   -6.07292   0.01099  0.01353  0.00975 -0.00542  0.00383 -0.00530   -1.12832   -1.71308  238.38184   0.02175  0.02313  0.16307 -0.00149 -0.01844  0.02253
2032 273507.000  -3963085.6667   3351316.4663   3694833.8902   1  19   0.0203   0.0263   0.0146  -0.0215   0.0179  -0.0153   0.00   12.6    4.10871   11.37603   -6.19614   0.01095  0.01356  0.00975 -0.00546  0.00394 -0.00535   -1.08336   -3.07869  238.60747   0.02177  0.02318  0.16460 -0.00147 -0.01885  0.02150
2032 273508.000  -3963081.5635   3351327.9834   3694827.7604   1  18   0.0193   0.0248   0.0140  -0.0204   0.0171  -0.0148   0.00   12.7    4.07828   11.61176   -6.16406   0.01089  0.01347  0.00971 -0.00539  0.00391 -0.00535   -0.59127   -2.06563  238.57461   0.02179  0.02320  0.16616 -0.00131 -0.01925  0.02045
2032 273509.000  -3963077.5006   3351339.6005   3694821.5530   1  18   0.0185   0.0238   0.0135  -0.0196   0.0165  -0.0142   0.00   12.7    3.99459   11.49882   -6.15763   0.01080  0.01342  0.00964 -0.00537  0.00399 -0.00536   -0.74092   -2.41807  238.24689   0.02184  0.02324  0.16797 -0.00123 -0.01956  0.01993
2032 273510.000  -3963073.5476   3351351.0791   3694815.4042   1  19   0.0126   0.0145   0.0100  -0.0121   0.0105  -0.0102   0.00    4.3    3.90193   11.32805   -6.06924   0.01064  0.01322  0.00955 -0.00513  0.00381 -0.00528   -0.60550   -2.52214  238.25272   0.02189  0.02326  0.16988 -0.00149 -0.01956  0.02060
2032 273511.000  -3963069.6176   3351362.3834   3694809.3778   1  21   0.0113   0.0136   0.0095  -0.0110   0.0099  -0.0095   0.00    7.0    3.91007   11.23979   -6.00204   0.01059  0.01318  0.00952 -0.00510  0.00387 -0.00524   -0.50093   -2.17366  238.42003   0.02200  0.02330  0.17150 -0.00165 -0.01903  0.02197
2032 273512.000  -3963065.7030   3351373.6762   3694803.3821   1  21   0.0100   0.0120   0.0088  -0.0096   0.0090  -0.0085   0.00   12.6    3.95501   11.20859   -6.14994   0.01050  0.01310  0.00948 -0.00510  0.00388 -0.00524   -0.81393   -1.72280  238.16180   0.02211  0.02333  0.17314 -0.00170 -0.01838  0.02326
2032 273513.000  -3963061.8239   3351384.9530   3694797.2791   1  19   0.0098   0.0131   0.0105  -0.0096   0.0103  -0.0086   0.00   13.3    3.88228   11.28650   -6.11846   0.01048  0.01311  0.00954 -0.00504  0.00395 -0.00518   -0.70056   -2.43140  238.06625   0.02225  0.02339  0.17492 -0.00166 -0.01803  0.02432
2032 273514.000  -3963057.9383   3351396.2618   3694791.2128   1  19   0.0095   0.0130   0.0103  -0.0094   0.0101  -0.0083   0.00   14.1    3.87540   11.32583   -6.02648   0.01046  0.01309  0.00952 -0.00502  0.00395 -0.00516   -0.32268   -2.28776  238.27983   0.02237  0.02344  0.17677 -0.00166 -0.01763  0.02525
2032 273515.000  -3963054.0495   3351407.5555   3694785.2328   1  20   0.0089   0.0127   0.0101  -0.0089   0.0098  -0.0078   0.00   16.2    3.88533   11.28967   -5.95051   0.01043  0.01307  0.00949 -0.00500  0.00396 -0.00513   -0.45309   -1.98192  238.50031   0.02248  0.02349  0.17861 -0.00160 -0.01695  0.02614
2032 273516.000  -3963050.0874   3351418.8916   3694779.2819   1  20   0.0085   0.0121   0.0095  -0.0085   0.0092  -0.0074   0.00   13.6    4.00756   11.43497   -5.97485   0.01039  0.01302  0.00947 -0.00500  0.00390 -0.00515   -0.28748   -1.53570  238.85664   0.02257  0.02354  0.18055 -0.00144 -0.01618  0.02664
2032 273517.000  -3963046.0753   3351430.3422   3694773.3279   1  21   0.0089   0.0119   0.0094  -0.0084   0.0090  -0.0074   0.00   14.0    4.05148   11.38360   -5.92742   0.01038  0.01300  0.00945 -0.00499  0.00392 -0.00513   -0.39610   -2.02722  239.13648   0.02265  0.02359  0.18252 -0.00112 -0.01547  0.02675
2032 273518.000  -3963042.0224   3351441.6712   3694767.4452   1  18   0.0092   0.0119   0.0095  -0.0086   0.0091  -0.0076   0.00   14.8    3.94732   11.21298   -5.87616   0.01036  0.01298  0.00944 -0.00500  0.00399 -0.00509   -0.56435   -1.71164  238.84169   0.02275  0.02365  0.18447 -0.00071 -0.01446  0.02715
2032 273519.000  -3963038.1973   3351452.8151   3694761.5748   1  15   0.0092   0.0119   0.0099  -0.0086   0.0093  -0.0077   0.00   15.2    3.78289   11.11243   -5.87833   0.01034  0.01297  0.00947 -0.00501  0.00401 -0.00504   -0.32104   -2.48259  238.33717   0.02288  0.02371  0.18630 -0.00033 -0.01365  0.02821
2032 273520.000  -3963034.3732   3351463.8974   3694755.6918   1  15   0.0091   0.0116   0.0098  -0.0085   0.0090  -0.0076   0.00   15.0    3.85477   11.15504   -5.87702   0.01031  0.01293  0.00943 -0.00500  0.00398 -0.00506   -0.25366   -2.18336  238.57426   0.02300  0.02377  0.18825  0.00043 -0.01309  0.02907
2032 273521.000  -3963030.7021   3351474.9688   3694750.1828   1   5   0.0593   0.0269   0.0308  -0.0343   0.0236  -0.0301   0.00    4.6    3.88255   10.98116   -5.71211   0.01318  0.01323  0.01076 -0.00503  0.00386 -0.00513   -0.49173   -2.20292  239.10792   0.02355  0.02414  0.19031  0.00254 -0.01277  0.02940
2032 273521.994  -3963026.7517   3351485.8747   3694744.5314   3   0   0.0877   0.1008   0.0739  -0.0766   0.0671  -0.0662   0.00    0.0    3.93606   10.80395   -5.44163   0.01548  0.01810  0.01385 -0.00701  0.00667 -0.00692   -0.42854   -2.06678  239.99077   0.02420  0.02478  0.19239  0.00245 -0.01275  0.02974
2032 273522.994  -3963022.7733   3351496.5734   3694739.2093   3   0   0.0994   0.1139   0.0843  -0.0829   0.0732  -0.0722   0.00    0.0    4.01348   10.60121   -5.19551   0.01724  0.01998  0.01552 -0.00615  0.00608 -0.00629   -0.47493   -2.34095  240.88155   0.02486  0.02542  0.19448  0.00237 -0.01275  0.03010
2032 273524.000  -3963018.7647   3351507.0775   3694734.0283   2   7   0.1127   0.1288   0.0966  -0.0890   0.0793  -0.0781   0.00    0.0    3.98995   10.43738   -5.19838   0.01901  0.02188  0.01734 -0.00502  0.00517 -0.00525   -0.79220   -1.95932  240.73342   0.02550  0.02605  0.19658  0.00229 -0.01267  0.03044
2032 273525.000  -3963014.7739   3351517.5409   3694728.7588   2   7   0.1142   0.1309   0.0987  -0.0915   0.0822  -0.0802   0.00    0.0    3.99915   10.56926   -5.31724   0.01901  0.02193  0.01751 -0.00545  0.00548 -0.00550   -0.65951   -1.79526  240.36729   0.02562  0.02612  0.19845  0.00258 -0.01054  0.03108
2032 273526.000  -3963010.8204   3351528.1594   3694723.4231   2   7   0.1140   0.1308   0.0988  -0.0918   0.0826  -0.0804   0.00    0.0    3.88707   10.76416   -5.30189   0.01896  0.02187  0.01753 -0.00553  0.00556 -0.00550   -0.01651   -1.39306  240.20720   0.02570  0.02616  0.20049  0.00279 -0.00848  0.03146
2032 273527.000  -3963006.9004   3351538.9355   3694718.0356   2   9   0.1136   0.1304   0.0986  -0.0918   0.0828  -0.0803   0.00    0.0    3.97106   10.77911   -5.45752   0.01890  0.02176  0.01750 -0.00559  0.00569 -0.00550   -0.88665   -1.53717  239.94056   0.02576  0.02620  0.20258  0.00294 -0.00689  0.03165
2032 273528.000  -3963003.0010   3351549.6750   3694712.4819   2   9   0.1132   0.1300   0.0982  -0.0918   0.0828  -0.0801   0.00    0.0    3.77588   10.74609   -5.58254   0.01883  0.02170  0.01745 -0.00555  0.00583 -0.00553   -0.40221   -1.40143  238.97218   0.02581  0.02625  0.20469  0.00303 -0.00608  0.03178
2032 273529.000  -3962999.2738   3351560.3937   3694706.8094   2  16   0.1127   0.1291   0.0975  -0.0916   0.0824  -0.0798   0.00    1.3    3.70631   10.75798   -5.69507   0.01876  0.02158  0.01736 -0.00561  0.00585 -0.00553   -0.38071   -2.07930  238.55561   0.02586  0.02628  0.20680  0.00302 -0.00667  0.03196
2032 273530.000  -3962995.6352   3351571.1460   3694701.1821   2  15   0.1120   0.1280   0.0965  -0.0912   0.0815  -0.0791   0.00    1.4    3.61163   10.68199   -5.52742   0.01865  0.02143  0.01724 -0.00581  0.00573 -0.00554   -0.12864   -3.63646  238.85348   0.02591  0.02631  0.20891  0.00300 -0.00744  0.03218
2032 273531.000  -3962991.9940   3351581.7071   3694695.6133   2  20   0.1113   0.1270   0.0954  -0.0909   0.0809  -0.0786   0.00    1.4    3.63565   10.40737   -5.49185   0.01851  0.02129  0.01704 -0.00607  0.00568 -0.00562   -0.41991   -4.67646  238.77969   0.02597  0.02635  0.21105  0.00297 -0.00841  0.03268
2032 273532.000  -3962988.3716   3351592.0450   3694690.1408   2  22   0.1105   0.1261   0.0942  -0.0906   0.0803  -0.0780   0.00    1.5    3.60992   10.17308   -5.42502   0.01838  0.02116  0.01686 -0.00627  0.00566 -0.00566   -1.00188   -4.63667  238.81578   0.02604  0.02638  0.21319  0.00293 -0.00906  0.03338
2032 273533.000  -3962984.8420   3351602.0535   3694684.8452   2  22   0.1097   0.1258   0.0935  -0.0906   0.0804  -0.0777   0.00    1.5    3.31523    9.50590   -5.04117   0.01829  0.02113  0.01682 -0.00653  0.00579 -0.00540   -0.86071   -3.76777  238.79642   0.02613  0.02642  0.21521  0.00296 -0.00877  0.03438
2032 273534.000  -3962981.4887   3351611.2599   3694679.7231   1  20   0.0130   0.0162   0.0104  -0.0135   0.0119  -0.0106   0.00    6.1    3.04656    8.67822   -4.55036   0.01100  0.01328  0.01047 -0.00508  0.00339 -0.00245   -1.49383   -4.57069  239.42048   0.02511  0.02532  0.21554  0.00245  0.00906  0.03708
2032 273535.000  -3962978.3593   3351619.6991   3694675.3785   1  23   0.0129   0.0159   0.0102  -0.0133   0.0117  -0.0105   0.00    7.0    3.10424    8.31703   -4.16501   0.01111  0.01333  0.01030 -0.00480  0.00376 -0.00250   -0.62025   -3.42779  240.53262   0.02536  0.02540  0.21566  0.00291  0.01254  0.03894
2032 273536.000  -3962975.1765   3351627.8652   3694671.4697   1  22   0.0117   0.0135   0.0088  -0.0115   0.0098  -0.0092   0.00   18.9    3.25361    7.94039   -3.72049   0.01121  0.01342  0.01011 -0.00435  0.00399 -0.00268   -0.80908   -2.67242  242.95706   0.02559  0.02548  0.21587  0.00350  0.01616  0.04049
2032 273537.000  -3962971.9092   3351635.5297   3694668.0370   1  20   0.0114   0.0127   0.0084  -0.0109   0.0089  -0.0086   0.00   18.1    3.14540    7.27093   -3.27550   0.01145  0.01349  0.01025 -0.00413  0.00425 -0.00160   -0.69087   -2.06443  244.45859   0.02583  0.02557  0.21558  0.00418  0.01975  0.04189
2032 273538.000  -3962968.8743   3351642.6214   3694664.8815   1  20   0.0122   0.0135   0.0086  -0.0113   0.0089  -0.0081   0.00    7.6    2.89536    6.80018   -3.10334   0.01132  0.01343  0.01032 -0.00454  0.00404 -0.00158   -0.95002   -1.83557  243.90372   0.02611  0.02567  0.21520  0.00482  0.02261  0.04340
2032 273539.000  -3962966.1441   3351649.1799   3694661.8449   1  20   0.0114   0.0128   0.0084  -0.0107   0.0087  -0.0081   0.00    7.6    2.46611    6.20877   -2.96184   0.01119  0.01339  0.01052 -0.00497  0.00372 -0.00100   -0.91440   -1.89298  242.26080   0.02641  0.02577  0.21482  0.00537  0.02467  0.04503
2032 273540.000  -3962963.8328   3351655.0898   3694658.9435   1  20   0.0103   0.0109   0.0074  -0.0092   0.0072  -0.0072   0.00    6.0    1.99826    5.32871   -2.74673   0.01127  0.01341  0.01096 -0.00530  0.00339  0.00234   -1.25380   -1.99142  240.36267   0.02675  0.02586  0.21408  0.00587  0.02616  0.04675
2032 273541.000  -3962962.0385   3351659.9673   3694656.4209   1  22   0.0102   0.0109   0.0074  -0.0092   0.0072  -0.0073   0.00    6.2    1.46045    4.07753   -2.19161   0.01184  0.01349  0.01175 -0.00550  0.00354  0.00469   -1.34676   -1.80714  239.19885   0.02718  0.02595  0.21147  0.00642  0.02748  0.04854
2032 273542.000  -3962960.7426   3351663.6111   3694654.5023   1  21   0.0101   0.0108   0.0074  -0.0091   0.0073  -0.0073   0.00    6.1    1.05225    3.02539   -1.67041   0.01201  0.01353  0.01194 -0.00551  0.00386  0.00519   -1.23338   -1.60374  238.52478   0.02768  0.02606  0.20676  0.00707  0.02889  0.05013
2032 273543.000  -3962959.8233   3351666.2238   3694653.0989   1  23   0.0098   0.0106   0.0073  -0.0089   0.0073  -0.0074   0.00    5.2    0.65702    1.96532   -1.11967   0.01208  0.01357  0.01197 -0.00548  0.00418  0.00535   -1.29044   -1.68776  238.15534   0.02818  0.02619  0.20171  0.00775  0.03032  0.05150
2032 273544.000  -3962959.3059   3351667.7225   3694652.2863   1  24   0.0096   0.0103   0.0070  -0.0087   0.0070  -0.0072   0.00    5.2    0.27992    0.87912   -0.53709   0.01206  0.01360  0.01185 -0.00542  0.00446  0.00525   -1.37987   -1.75607  238.03677   0.02870  0.02634  0.19640  0.00847  0.03175  0.05264
2032 273545.000  -3962959.1252   3351668.2443   3694652.0021   1  24   0.0093   0.0101   0.0068  -0.0085   0.0068  -0.0069   0.00    5.3    0.10069    0.33705   -0.24634   0.01128  0.01355  0.01095 -0.00545  0.00433  0.00290   -0.98957   -1.74642  237.95244   0.02921  0.02650  0.19230  0.00919  0.03316  0.05371
2032 273546.000  -3962959.0348   3351668.5171   3694651.8617   1  24   0.0092   0.0100   0.0067  -0.0084   0.0068  -0.0068   0.00    5.6    0.10807    0.37212   -0.24976   0.01042  0.01342  0.00998 -0.00543  0.00397 -0.00335   -0.91988   -1.70081  237.89865   0.02964  0.02664  0.19183  0.00975  0.03444  0.05490
2032 273547.000  -3962958.9565   3351668.7429   3694651.7353   1  24   0.0091   0.0099   0.0066  -0.0083   0.0067  -0.0067   0.00    5.4    0.09180    0.31465   -0.20924   0.01022  0.01330  0.00971 -0.00532  0.00380 -0.00404   -0.88956   -1.66936  237.89231   0.02992  0.02675  0.19322  0.01010  0.03538  0.05584
2032 273548.000  -3962958.8938   3351668.9219   3694651.6364   1  24   0.0090   0.0098   0.0065  -0.0082   0.0065  -0.0065   0.00    5.5    0.03440    0.11935   -0.10289   0.01028  0.01320  0.00975 -0.00523  0.00371 -0.00394   -1.01318   -1.69963  237.88786   0.03004  0.02682  0.19502  0.01022  0.03586  0.05627
2032 273549.000  -3962958.8881   3351668.9252   3694651.6288   1  25   0.0089   0.0097   0.0064  -0.0081   0.0065  -0.0064   0.00    5.6    0.03445    0.09033   -0.08054   0.01056  0.01309  0.01001 -0.00507  0.00368 -0.00323   -0.90625   -1.68377  237.87719   0.03001  0.02686  0.19648  0.01015  0.03593  0.05619
2032 273550.000  -3962958.8875   3351668.9242   3694651.6275   1  25   0.0087   0.0097   0.0064  -0.0080   0.0065  -0.0064   0.00    5.7    0.04882    0.09185   -0.08248   0.01093  0.01298  0.01037 -0.00489  0.00370 -0.00178   -0.86597   -1.65839  237.89401   0.02980  0.02686  0.19699  0.00983  0.03540  0.05535
2032 273551.000  -3962958.8435   3351669.0587   3694651.5587   1  24   0.0090   0.0098   0.0067  -0.0081   0.0066  -0.0067   0.00    5.5    0.17509    0.45038   -0.25919   0.01174  0.01286  0.01112 -0.00449  0.00388  0.00359   -0.68657   -1.64473  237.86564   0.02938  0.02681  0.19571  0.00922  0.03407  0.05348
2032 273552.000  -3962958.6657   3351669.5796   3694651.2772   1  24   0.0090   0.0097   0.0067  -0.0081   0.0066  -0.0067   0.00    5.5    0.35066    0.90092   -0.50565   0.01255  0.01273  0.01187 -0.00402  0.00411  0.00550   -0.49296   -1.62081  237.76563   0.02875  0.02672  0.19183  0.00828  0.03175  0.05030
2032 273553.000  -3962958.2050   3351670.9172   3694650.5617   1  25   0.0089   0.0097   0.0067  -0.0081   0.0066  -0.0067   0.00    5.9    0.79582    2.14326   -1.14470   0.01434  0.01256  0.01354 -0.00271  0.00473  0.00852   -0.26842   -1.79525  238.06656   0.02789  0.02659  0.18296  0.00686  0.02777  0.04492
2032 273554.000  -3962957.3348   3351673.4177   3694649.2344   1  25   0.0087   0.0097   0.0065  -0.0079   0.0065  -0.0065   0.00    5.8    1.23473    3.33422   -1.74389   0.01525  0.01240  0.01440 -0.00170  0.00499  0.00975   -0.14146   -1.99434  238.43570   0.02701  0.02647  0.16996  0.00522  0.02244  0.03777
2032 273555.000  -3962956.0294   3351677.0711   3694647.2978   1  25   0.0086   0.0096   0.0065  -0.0079   0.0065  -0.0064   0.00    5.6    1.50311    4.03715   -2.13011   0.01466  0.01228  0.01378 -0.00223  0.00476  0.00873   -0.50484   -1.83806  238.37994   0.02636  0.02642  0.15659  0.00384  0.01653  0.03008
2032 273556.000  -3962954.4746   3351681.3945   3694645.0064   1  25   0.0086   0.0096   0.0065  -0.0079   0.0065  -0.0064   0.00    5.9    1.77077    4.78471   -2.51363   0.01416  0.01219  0.01325 -0.00259  0.00458  0.00779   -0.27310   -1.70398  238.29024   0.02602  0.02642  0.14661  0.00313  0.01042  0.02299
2032 273557.000  -3962952.6508   3351686.5459   3694642.2927   1  25   0.0085   0.0096   0.0065  -0.0078   0.0064  -0.0064   0.00    6.1    1.97552    5.54194   -2.89166   0.01364  0.01212  0.01267 -0.00279  0.00447  0.00669   -0.08446   -1.35203  237.99384   0.02587  0.02646  0.13862  0.00306 -0.00432  0.01537
2032 273558.000  -3962950.6692   3351692.2619   3694639.2901   1  25   0.0092   0.0105   0.0067  -0.0087   0.0070  -0.0068   0.00    4.8    2.00338    5.73227   -2.99503   0.01253  0.01210  0.01158 -0.00348  0.00409  0.00426    0.04149   -1.16505  237.61455   0.02586  0.02653  0.13355  0.00344 -0.01071  0.00490
2032 273559.000  -3962948.7322   3351698.0698   3694636.2259   1  23   0.0097   0.0106   0.0069  -0.0090   0.0071  -0.0071   0.00    7.3    1.93023    5.66913   -2.97476   0.01156  0.01209  0.01066 -0.00400  0.00374 -0.00140    0.31758   -1.28181  237.18444   0.02591  0.02661  0.13140  0.00391 -0.01366 -0.01106
2032 273560.000  -3962946.8434   3351703.8496   3694633.1827   1  22   0.0097   0.0106   0.0071  -0.0089   0.0072  -0.0073   0.00    6.9    1.91794    5.85814   -3.04728   0.01113  0.01208  0.01026 -0.00418  0.00361 -0.00316    0.58386   -1.16881  236.83255   0.02599  0.02670  0.13097  0.00433 -0.01558 -0.01504
2032 273561.000  -3962944.9414   3351709.7876   3694630.0455   1  21   0.0099   0.0106   0.0075  -0.0088   0.0071  -0.0076   0.00    6.9    1.86935    5.70505   -3.01235   0.01065  0.01209  0.00986 -0.00445  0.00343 -0.00417    0.32842   -0.72722  236.49523   0.02608  0.02679  0.13137  0.00466 -0.01698 -0.01745
2032 273562.000  -3962943.1905   3351715.4660   3694627.0798   1  16   0.0118   0.0142   0.0104  -0.0116   0.0105  -0.0102   0.00    3.8    1.75618    5.36306   -2.82029   0.01035  0.01216  0.00969 -0.00471  0.00341 -0.00455    0.26951   -0.73556  236.46721   0.02615  0.02687  0.13253  0.00482 -0.01771 -0.01855
2032 273563.000  -3962941.5099   3351720.5750   3694624.5218   2   9   0.0927   0.1062   0.0786  -0.0812   0.0677  -0.0672   0.00    1.3    1.75853    5.00195   -2.59026   0.01593  0.01828  0.01496 -0.00750  0.00467 -0.00572    0.09631   -0.62797  237.24994   0.02715  0.02759  0.13441  0.00476 -0.01950 -0.01979
2032 273564.001  -3962939.7158   3351725.4636   3694622.1413   3   2   0.1053   0.1203   0.0905  -0.0881   0.0726  -0.0725   0.00    0.0    1.88707    4.76188   -2.13685   0.01783  0.02026  0.01682 -0.00684  0.00326 -0.00424    0.40309   -0.58397  241.05399   0.02775  0.02818  0.13572  0.00475 -0.01960 -0.02021
2032 273565.000  -3962937.5973   3351730.0609   3694620.3378   2   7   0.1197   0.1362   0.1042  -0.0947   0.0766  -0.0772   0.00    0.0    2.37964    4.43992   -1.40657   0.02004  0.02247  0.01872 -0.00531 -0.00200  0.00192   -0.09548   -1.34187  250.06022   0.02836  0.02876  0.13703  0.00472 -0.01967 -0.02061
2032 273566.000  -3962934.8204   3351734.3273   3694619.4735   2  11   0.1323   0.1414   0.1074  -0.1043   0.0727  -0.0753   0.00    0.0    3.13313    3.97619   -0.22104   0.02198  0.02315  0.01932 -0.00633 -0.00483  0.00567   -0.64408   -1.73417  265.58825   0.02872  0.02884  0.13761  0.00471 -0.01787 -0.02054
2032 273567.000  -3962931.4535   3351738.0426   3694619.5985   2   9   0.1450   0.1415   0.1078  -0.1086   0.0748  -0.0824   0.00    0.0    3.55377    3.38272    0.67001   0.02372  0.02334  0.01929 -0.00462 -0.00476  0.00530   -0.67735   -2.66683  278.68817   0.02869  0.02892  0.13764  0.00495 -0.01548 -0.01947
2032 273568.000  -3962927.7235   3351741.0616   3694620.7333   2   4   0.1658   0.1500   0.1231  -0.1158   0.0694  -0.0860   0.00    0.0    3.89931    2.67717    1.59203   0.02690  0.02504  0.02173  0.00220 -0.00827  0.00851   -0.84307   -2.21797  291.80094   0.02921  0.02923  0.13821  0.00437 -0.01362 -0.01937
2032 273569.002  -3962923.7753   3351743.3341   3694622.7793   3   2   0.1901   0.1706   0.1424  -0.1235   0.0679  -0.0884   0.00    0.0    4.02100    1.85905    2.50849   0.03078  0.02852  0.02481  0.00827 -0.01057  0.01230   -1.25204   -2.46805  305.58648   0.02973  0.02975  0.13953  0.00435 -0.01345 -0.01978
2032 273570.002  -3962919.7805   3351744.7368   3694625.6555   3   2   0.2182   0.1947   0.1648  -0.1300   0.0632  -0.0877   0.00    0.0    3.78703    0.99192    3.04819   0.03487  0.03233  0.02851  0.01185 -0.01321  0.01637   -1.00946   -1.73122  316.65342   0.03020  0.03021  0.14086  0.00432 -0.01321 -0.02012
2032 273571.000  -3962916.4466   3351745.4861   3694628.4715   2   8   0.2215   0.2204   0.1768  -0.1324   0.0630  -0.1148   0.00    0.0    3.08388    0.49931    2.74989   0.03439  0.03578  0.02959  0.01377 -0.01562  0.01393   -0.62674   -1.25849  320.88995   0.02928  0.03043  0.13993  0.00353 -0.01106 -0.01405
2032 273572.000  -3962913.4957   3351746.1603   3694630.9087   2   9   0.2177   0.2202   0.1744  -0.1358   0.0735  -0.1149   0.00    0.0    2.36751    0.15937    2.31520   0.03380  0.03593  0.02976  0.01305 -0.01550  0.01422   -0.87127   -1.19812  324.84230   0.02849  0.02952  0.13940  0.00361 -0.00558 -0.00558
2032 273573.000  -3962911.5466   3351746.5966   3694632.6611   2  20   0.2091   0.2155   0.1672  -0.1363   0.0838  -0.1157   0.00    0.0    1.17389   -0.07342    1.26541   0.03241  0.03584  0.02916  0.01254 -0.01492  0.01343   -0.96229   -1.09298  325.76991   0.02732  0.02836  0.13897  0.00365  0.00583  0.01246
2032 273574.000  -3962910.6330   3351746.7445   3694633.4035   2  17   0.2027   0.2124   0.1619  -0.1358   0.0900  -0.1147   0.00    0.0    0.41143   -0.20330    0.54306   0.03165  0.03594  0.02873  0.01284 -0.01435  0.01301   -0.75093   -1.12077  325.93119   0.02632  0.02730  0.13919  0.00375  0.00575  0.01697
